[
  {
    "name": "Bell Launderette",
    "address": "79 Prince Avenue, Southend-On-Sea, SS2 6RL",
    "city": "Southend-on-Sea",
    "lat": 51.5540,
    "lng": 0.6970,
    "features": ["Self-Service", "Service Wash", "Coin-Op", "Long Hours"],
    "openingHours": "Mon-Sun: 8:00am - 8:00pm",
    "website": "https://www.yell.com/biz/bell-launderette-southend-on-sea-3464933/",
    "isPremium": false,
    "reviewCount": 18,
    "rating": 4.5
  },
  {
    "name": "Fairfax Launderette",
    "address": "167 Fairmead Avenue, Westcliff-on-Sea, SS0 9SD",
    "city": "Southend-on-Sea",
    "lat": 51.5430,
    "lng": 0.6860,
    "features": ["DIY Coin-Op", "Service Wash", "Collection/Delivery", "Family Run"],
    "openingHours": "Mon-Sun: 8:00am - 8:00pm",
    "website": "https://fairfaxlaunderette.co.uk/",
    "isPremium": true,
    "reviewCount": 15,
    "rating": 4.7
  },
  {
    "name": "Jean's Launderette",
    "address": "25 Milton Rd, Southend-on-Sea, SS1 2RF (Est)",
    "city": "Southend-on-Sea",
    "lat": 51.5430,
    "lng": 0.7100,
    "features": ["Dry Cleaning", "Ironing", "Service Wash", "Rug Cleaning"],
    "openingHours": "Mon-Sat: 8:30am - 5:30pm, Sun: Closed",
    "website": "https://www.jeanslaundrette.co.uk/",
    "isPremium": true,
    "reviewCount": 10,
    "rating": 4.6
  },
  {
    "name": "Millennium Dry Cleaners",
    "address": "54 London Rd, Southend-On-Sea, SS1 1NX",
    "city": "Southend-on-Sea",
    "lat": 51.5410,
    "lng": 0.7060,
    "features": ["Dry Cleaning", "Ironing", "Airbnb Service", "Quick Turnaround"],
    "openingHours": "Mon-Sat: 8:00am - 6:00pm, Sun: Closed",
    "website": "https://www.millenniumdrycleaning.co.uk/",
    "isPremium": true,
    "reviewCount": 12,
    "rating": 4.5
  },
  {
    "name": "Rayleigh Launderette",
    "address": "119 High St, Rayleigh, SS6 7QB",
    "city": "Southend-on-Sea",
    "lat": 51.5830,
    "lng": 0.6050,
    "features": ["Self-Service", "Service Wash", "Town Centre", "Duvet Cleaning"],
    "openingHours": "Mon-Sun: 7:30am - 8:30pm",
    "website": "",
    "isPremium": false,
    "reviewCount": 7,
    "rating": 4.2
  },
  {
    "name": "Leigh-on-Sea Launderette",
    "address": "81 Broadway, Leigh-on-Sea, SS9 1PE (Est)",
    "city": "Southend-on-Sea",
    "lat": 51.5450,
    "lng": 0.6470,
    "features": ["Self-Service", "Attended (Partial)", "Coastal Location"],
    "openingHours": "Mon-Sun: 8:00am - 7:00pm",
    "website": "",
    "isPremium": false,
    "reviewCount": 5,
    "rating": 4.0
  },
  {
    "name": "Love2Laundry Southend (Collection/Delivery)",
    "address": "Servicing SS postcodes (Virtual Listing)",
    "city": "Southend-on-Sea",
    "lat": 51.5400,
    "lng": 0.7000,
    "features": ["Collection/Delivery", "24hr Turnaround", "App Service", "Dry Cleaning"],
    "openingHours": "24/7 Booking",
    "website": "https://www.love2laundry.com/",
    "isPremium": true,
    "reviewCount": 18,
    "rating": 4.7
  },
  {
    "name": "Timpson Dry Cleaning (Tesco Agent)",
    "address": "Tesco Extra, Prince Ave, Southend-on-Sea, SS2 6LA",
    "city": "Southend-on-Sea",
    "lat": 51.5540,
    "lng": 0.6970,
    "features": ["Dry Cleaning Drop-Off", "In-Store Agent", "Key Cutting"],
    "openingHours": "Mon-Sat: 9:00am - 6:00pm, Sun: 10:00am - 4:00pm",
    "website": "https://www.timpson.co.uk/",
    "isPremium": true,
    "reviewCount": 4,
    "rating": 4.1
  },
  {
    "name": "Rochford Launderette",
    "address": "15 North St, Rochford, SS4 1AB (Est)",
    "city": "Southend-on-Sea",
    "lat": 51.5750,
    "lng": 0.7000,
    "features": ["Self-Service", "Service Wash", "Village Focus"],
    "openingHours": "Mon-Fri: 8:30am - 5:00pm, Sat: 8:30am - 1:00pm, Sun: Closed",
    "website": "",
    "isPremium": false,
    "reviewCount": 3,
    "rating": 3.9
  },
  {
    "name": "Shoeburyness Launderette",
    "address": "14 Ness Rd, Shoeburyness, SS3 9DA (Est)",
    "city": "Southend-on-Sea",
    "lat": 51.5300,
    "lng": 0.7960,
    "features": ["Launderette", "Coin-Op", "Coastal Location"],
    "openingHours": "Mon-Sun: 8:00am - 7:00pm",
    "website": "",
    "isPremium": false,
    "reviewCount": 4,
    "rating": 4.0
  },
  {
    "name": "The Canterbury Launderette",
    "address": "4 Nunnery Fields, Canterbury, CT1 3JN",
    "city": "Canterbury",
    "lat": 51.2720,
    "lng": 1.0770,
    "features": ["Fully Attended", "Service Wash", "Dry Cleaning Agent", "Clean Facilities"],
    "openingHours": "Mon-Sat: 9:00am - 5:00pm, Sun: Closed",
    "website": "https://www.yell.com/biz/the-canterbury-launderette-canterbury-2954656/",
    "isPremium": true,
    "reviewCount": 15,
    "rating": 4.5
  },
  {
    "name": "Westgate Dry Cleaners & Launderette",
    "address": "91 St. Dunstans St, Canterbury, CT2 8AD (Est)",
    "city": "Canterbury",
    "lat": 51.2800,
    "lng": 1.0700,
    "features": ["Dry Cleaning", "Repairs/Alterations", "Service Wash"],
    "openingHours": "Mon-Sat: 8:30am - 6:00pm, Sun: Closed",
    "website": "https://www.westgatedrycleaners.co.uk/",
    "isPremium": true,
    "reviewCount": 8,
    "rating": 4.3
  },
  {
    "name": "Love2Laundry Canterbury (Collection/Delivery)",
    "address": "Servicing CT postcodes (Virtual Listing)",
    "city": "Canterbury",
    "lat": 51.2780,
    "lng": 1.0800,
    "features": ["Collection/Delivery", "24hr Turnaround", "App Service", "Dry Cleaning"],
    "openingHours": "24/7 Booking",
    "website": "https://www.love2laundry.com/",
    "isPremium": true,
    "reviewCount": 10,
    "rating": 4.6
  },
  {
    "name": "Laundryswift (Collection/Delivery)",
    "address": "1 Petchell Mews, Canterbury, CT1 1LB (Virtual Listing)",
    "city": "Canterbury",
    "lat": 51.2770,
    "lng": 1.0800,
    "features": ["FREE Collection/Delivery", "Ironing Service", "Online Booking"],
    "openingHours": "Mon-Sun: 7:00am - 9:00pm",
    "website": "https://laundryswift.co.uk/",
    "isPremium": true,
    "reviewCount": 7,
    "rating": 4.5
  },
  {
    "name": "Whitstable Launderette",
    "address": "5 Harbour St, Whitstable, CT5 1AG (Est)",
    "city": "Canterbury",
    "lat": 51.3600,
    "lng": 1.0300,
    "features": ["Coastal Location", "Self-Service", "Service Wash"],
    "openingHours": "Mon-Sun: 7:00am - 7:00pm",
    "website": "",
    "isPremium": false,
    "reviewCount": 6,
    "rating": 4.1
  },
  {
    "name": "Herne Bay Launderette",
    "address": "5 Central Parade, Herne Bay, CT6 5AP (Est)",
    "city": "Canterbury",
    "lat": 51.3700,
    "lng": 1.1200,
    "features": ["Launderette", "Dry Cleaning Agent", "Coastal Location"],
    "openingHours": "Mon-Sat: 8:30am - 5:00pm, Sun: Closed",
    "website": "",
    "isPremium": false,
    "reviewCount": 4,
    "rating": 3.9
  },
  {
    "name": "Sandwich Launderette",
    "address": "2 Guildhall St, Sandwich, CT13 9PZ (Est)",
    "city": "Canterbury",
    "lat": 51.2750,
    "lng": 1.3340,
    "features": ["Self-Service", "Service Wash", "Rural Town Focus"],
    "openingHours": "Mon-Fri: 8:00am - 5:30pm, Sat: 8:00am - 1:00pm, Sun: Closed",
    "website": "",
    "isPremium": false,
    "reviewCount": 3,
    "rating": 4.0
  },
  {
    "name": "Faversham Launderette",
    "address": "15 East St, Faversham, ME13 8AT (Est)",
    "city": "Canterbury",
    "lat": 51.3200,
    "lng": 0.8900,
    "features": ["Launderette", "Coin-Op", "Attended (Partial)"],
    "openingHours": "Mon-Sun: 7:00am - 8:00pm",
    "website": "",
    "isPremium": false,
    "reviewCount": 5,
    "rating": 4.2
  },
  {
    "name": "Ashford Launderette",
    "address": "3 High St, Ashford, TN24 8TQ (Est)",
    "city": "Canterbury",
    "lat": 51.1460,
    "lng": 0.8710,
    "features": ["Self-Service", "Large Machines", "Town Centre"],
    "openingHours": "Mon-Sun: 6:00am - 9:00pm",
    "website": "",
    "isPremium": false,
    "reviewCount": 10,
    "rating": 4.3
  },
  {
    "name": "Dover Launderette (The Mangle)",
    "address": "21 Worthington St, Dover, CT17 9AQ (Est)",
    "city": "Canterbury",
    "lat": 51.1280,
    "lng": 1.3090,
    "features": ["Self-Service", "Service Wash", "Attended (Partial)"],
    "openingHours": "Mon-Sat: 8:00am - 6:00pm, Sun: Closed",
    "website": "",
    "isPremium": false,
    "reviewCount": 8,
    "rating": 4.1
  },
  {
    "name": "Rainham Laundrette",
    "address": "35 Station Rd, Rainham, Gillingham, ME8 7RS",
    "city": "Gillingham",
    "lat": 51.3780,
    "lng": 0.5900,
    "features": ["Fully Staffed", "Self-Service", "Free Collection/Delivery", "Ironing Service"],
    "openingHours": "Mon-Fri: 6:00am - 9:00pm, Sat: 9:00am - 7:00pm, Sun: 10:00am - 6:00pm",
    "website": "https://www.yell.com/biz/rainham-launderette-gillingham-7190066/",
    "isPremium": true,
    "reviewCount": 16,
    "rating": 4.8
  },
  {
    "name": "Monarch Launderette (Maidstone)",
    "address": "140c Ashford Rd, Maidstone, ME14 4NA (Est)",
    "city": "Gillingham",
    "lat": 51.2760,
    "lng": 0.5500,
    "features": ["24hr Launderette", "Duvet Cleaning", "Shirt Service", "Dry Cleaning"],
    "openingHours": "24/7",
    "website": "",
    "isPremium": false,
    "reviewCount": 10,
    "rating": 4.2
  },
  {
    "name": "Advance Laundry Services (Chatham)",
    "address": "36 New Rd, Chatham, ME4 6BE (Est)",
    "city": "Gillingham",
    "lat": 51.3800,
    "lng": 0.5280,
    "features": ["Local Collection/Delivery", "Self-Service", "Dry Cleaning", "20+ Years Experience"],
    "openingHours": "Mon-Sat: 9:00am - 5:00pm, Sun: Closed",
    "website": "https://www.yell.com/biz/advance-laundry-services-chatham-901111956/",
    "isPremium": true,
    "reviewCount": 11,
    "rating": 4.8
  },
  {
    "name": "Love2Laundry Gillingham (Collection/Delivery)",
    "address": "Servicing ME postcodes (Virtual Listing)",
    "city": "Gillingham",
    "lat": 51.3850,
    "lng": 0.5500,
    "features": ["Collection/Delivery", "24hr Turnaround", "App Service", "Dry Cleaning"],
    "openingHours": "24/7 Booking",
    "website": "https://www.love2laundry.com/",
    "isPremium": true,
    "reviewCount": 14,
    "rating": 4.5
  },
  {
    "name": "Timpson Dry Cleaning (Tesco Agent)",
    "address": "Tesco, Courtney Road, Gillingham, ME8 0GX",
    "city": "Gillingham",
    "lat": 51.3930,
    "lng": 0.5750,
    "features": ["Dry Cleaning Drop-Off", "In-Store Agent", "Key Cutting"],
    "openingHours": "Mon-Sat: 9:00am - 6:00pm, Sun: 10:00am - 4:00pm",
    "website": "https://www.timpson.co.uk/",
    "isPremium": true,
    "reviewCount": 5,
    "rating": 4.0
  },
  {
    "name": "Organic Dry Cleaner (Gillingham)",
    "address": "44 Hoath Lane, Wigmore, Gillingham, ME8 0SW",
    "city": "Gillingham",
    "lat": 51.3750,
    "lng": 0.5700,
    "features": ["Eco-Friendly", "Dry Cleaning", "Local Service", "Collection/Delivery"],
    "openingHours": "Mon-Fri: 8:00am - 8:00pm, Sat: 8:00am - 6:00pm, Sun: 10:00am - 2:00pm",
    "website": "https://organicdrycleaner.co.uk/",
    "isPremium": true,
    "reviewCount": 8,
    "rating": 4.7
  },
  {
    "name": "Lords Specialist Dry Cleaners (Chatham)",
    "address": "3 Admirals Walk, Chatham, ME5 8NL",
    "city": "Gillingham",
    "lat": 51.3750,
    "lng": 0.5000,
    "features": ["Dry Cleaning", "Repairs/Alterations", "Service Wash"],
    "openingHours": "Mon-Sat: 9:00am - 5:00pm, Sun: Closed",
    "website": "",
    "isPremium": true,
    "reviewCount": 5,
    "rating": 4.3
  },
  {
    "name": "Maidstone Launderette",
    "address": "5 Loose Rd, Maidstone, ME15 6BH (Est)",
    "city": "Gillingham",
    "lat": 51.2750,
    "lng": 0.5300,
    "features": ["Self-Service", "Service Wash", "Duvet Cleaning"],
    "openingHours": "Mon-Sun: 7:00am - 9:00pm",
    "website": "",
    "isPremium": false,
    "reviewCount": 8,
    "rating": 4.1
  },
  {
    "name": "Medway Dry Cleaners (Strood)",
    "address": "2 Commercial Rd, Strood, Rochester, ME2 2AD (Est)",
    "city": "Gillingham",
    "lat": 51.3910,
    "lng": 0.4900,
    "features": ["Dry Cleaning", "Repairs/Alterations", "Shirt Service"],
    "openingHours": "Mon-Fri: 8:00am - 6:00pm, Sat: 8:00am - 4:00pm, Sun: Closed",
    "website": "",
    "isPremium": false,
    "reviewCount": 4,
    "rating": 4.0
  },
  {
    "name": "Tubs & Bubbles (Gravesend)",
    "address": "12 Whinfell Way, Gravesend, DA12 4RU (Est)",
    "city": "Gillingham",
    "lat": 51.4280,
    "lng": 0.3800,
    "features": ["Coin-Op", "Launderette", "Self-Service"],
    "openingHours": "Mon-Sun: 7:00am - 9:00pm",
    "website": "",
    "isPremium": false,
    "reviewCount": 3,
    "rating": 3.9
  }
]
