[
  {
    "name": "Lantern Launderette (Folkestone)",
    "address": "9 The Old High St, Folkestone, CT20 1RJ",
    "city": "Folkestone",
    "lat": 51.0800,
    "lng": 1.1850,
    "features": ["Longest Established", "Service Wash", "Coin-Op", "Eco-Friendly Detergents"],
    "openingHours": "Mon-Sat: 8:30am - 8:00pm, Sun: 10:00am - 4:00pm",
    "website": "https://www.lanternlaunderette.co.uk/",
    "isPremium": true,
    "reviewCount": 18,
    "rating": 4.5
  },
  {
    "name": "Posh Wash Laundrette Services",
    "address": "352 Cheriton Rd, Folkestone, CT19 4DS",
    "city": "Folkestone",
    "lat": 51.0860,
    "lng": 1.1570,
    "features": ["WetCare (Eco-Friendly Dry Cleaning)", "Service Washes", "Ironing", "35+ Years Experience"],
    "openingHours": "Mon-Sat: 8:00am - 6:00pm, Sun: Closed",
    "website": "https://www.poshwashlaunderette.co.uk/",
    "isPremium": true,
    "reviewCount": 25,
    "rating": 5.0
  },
  {
    "name": "Revolution Laundry (Morrisons Cheriton)",
    "address": "Morrisons, 148 Cheriton Road, Folkestone, CT19 5JU",
    "city": "Folkestone",
    "lat": 51.0850,
    "lng": 1.1590,
    "features": ["24/7 Outdoor Machine", "Large Capacity", "Card Payment"],
    "openingHours": "24/7",
    "website": "https://stores.revolution-laundry.com/",
    "isPremium": false,
    "reviewCount": 10,
    "rating": 4.1
  },
  {
    "name": "Posh Press Dry Cleaners & Launderette",
    "address": "2 St. Georges Terrace, Folkestone, CT19 4BB",
    "city": "Folkestone",
    "lat": 51.0770,
    "lng": 1.1680,
    "features": ["Dry Cleaning", "Tailoring", "Ironing", "Service Wash"],
    "openingHours": "Mon-Fri: 9:00am - 7:00pm, Sat: 9:00am - 5:00pm, Sun: Closed",
    "website": "https://www.yell.com/biz/posh-press-dry-cleaners-and-launderette-folkestone-10114138/",
    "isPremium": true,
    "reviewCount": 6,
    "rating": 5.0
  },
  {
    "name": "Love2Laundry Folkestone (Collection/Delivery)",
    "address": "Servicing CT postcodes (Virtual Listing)",
    "city": "Folkestone",
    "lat": 51.0790,
    "lng": 1.1800,
    "features": ["Collection/Delivery", "24hr Turnaround", "App Service"],
    "openingHours": "24/7 Booking",
    "website": "https://www.love2laundry.com/",
    "isPremium": true,
    "reviewCount": 12,
    "rating": 4.4
  },
  {
    "name": "Hythe Launderette",
    "address": "44a High St, Hythe, CT21 5AT (Est)",
    "city": "Folkestone",
    "lat": 51.0720,
    "lng": 1.0800,
    "features": ["Self-Service", "Service Wash", "Repairs/Alterations", "Town Centre"],
    "openingHours": "Mon-Fri: 9:00am - 5:00pm, Sat: 9:00am - 1:00pm, Sun: Closed",
    "website": "https://www.yell.com/biz/the-tailor-of-hythe-hythe-8798991/",
    "isPremium": false,
    "reviewCount": 9,
    "rating": 4.6
  },
  {
    "name": "Dover Launderette (Castle Street)",
    "address": "15 Castle St, Dover, CT16 1QJ (Est)",
    "city": "Folkestone",
    "lat": 51.1270,
    "lng": 1.3120,
    "features": ["Launderette", "Coin-Op", "Duvet Cleaning"],
    "openingHours": "Mon-Sun: 7:00am - 8:00pm",
    "website": "",
    "isPremium": false,
    "reviewCount": 4,
    "rating": 3.9
  },
  {
    "name": "Ashford Launderette (High St)",
    "address": "3 High St, Ashford, TN24 8TG (Est)",
    "city": "Folkestone",
    "lat": 51.1460,
    "lng": 0.8710,
    "features": ["Self-Service", "Service Wash", "Dry Cleaning Agent"],
    "openingHours": "Mon-Sun: 6:00am - 9:00pm",
    "website": "",
    "isPremium": false,
    "reviewCount": 10,
    "rating": 4.3
  },
  {
    "name": "Sandgate Launderette",
    "address": "5 Sandgate High St, Folkestone, CT20 3BD (Est)",
    "city": "Folkestone",
    "lat": 51.0660,
    "lng": 1.1500,
    "features": ["Self-Service", "Attended (Partial)", "Coastal Location"],
    "openingHours": "Mon-Sat: 8:00am - 6:00pm, Sun: Closed",
    "website": "",
    "isPremium": false,
    "reviewCount": 5,
    "rating": 4.0
  },
  {
    "name": "Washing Wizards (Folkestone)",
    "address": "122 Canterbury Rd, Folkestone, CT19 5NR",
    "city": "Folkestone",
    "lat": 51.0880,
    "lng": 1.1640,
    "features": ["Ironing Service", "Duvet Cleans", "Collection/Delivery"],
    "openingHours": "Mon-Sat: 8:30am - 5:00pm, Sun: Closed",
    "website": "https://thewashingwizards.com/",
    "isPremium": true,
    "reviewCount": 6,
    "rating": 4.8
  },
  {
    "name": "The Steamie Launderette",
    "address": "53-55 Mount Rd, Hastings, TN35 5LA",
    "city": "Hastings",
    "lat": 50.8520,
    "lng": 0.5900,
    "features": ["Self-Service", "Service Wash", "Duvet Cleaning", "Early Opener"],
    "openingHours": "Mon-Fri: 7:00am - 7:00pm, Sat: 7:00am - 5:00pm, Sun: Closed",
    "website": "https://www.yell.com/biz/the-steamie-hastings-10332345/",
    "isPremium": false,
    "reviewCount": 8,
    "rating": 4.2
  },
  {
    "name": "Old Town Launderette (Hastings)",
    "address": "44 High St, Hastings, TN34 3EN",
    "city": "Hastings",
    "lat": 50.8550,
    "lng": 0.5800,
    "features": ["Self-Service", "Service Wash", "24/7 Hours"],
    "openingHours": "24/7",
    "website": "https://www.yell.com/biz/old-town-launderette-hastings-10332274/",
    "isPremium": false,
    "reviewCount": 10,
    "rating": 4.0
  },
  {
    "name": "Laundry Ninjas",
    "address": "Unit 5, Moorhurst Rd, Hastings, TN38 9NA",
    "city": "Hastings",
    "lat": 50.8650,
    "lng": 0.5100,
    "features": ["Collection/Delivery", "Ironing", "Duvet Cleaning", "Award Winning"],
    "openingHours": "Tue-Fri: 9:00am - 2:00pm (Drop-off only), 24hr Collection/Delivery",
    "website": "https://www.laundryninjas.co.uk/",
    "isPremium": true,
    "reviewCount": 20,
    "rating": 5.0
  },
  {
    "name": "Wash In (St Leonards-on-Sea)",
    "address": "42 London Rd, St. Leonards-On-Sea, TN37 6AN",
    "city": "Hastings",
    "lat": 50.8520,
    "lng": 0.5570,
    "features": ["Self-Service", "Service Wash", "Drying Facilities"],
    "openingHours": "Mon-Sun: 8:00am - 7:00pm",
    "website": "https://www.yell.com/biz/wash-in-st-leonards-on-sea-10114088/",
    "isPremium": false,
    "reviewCount": 6,
    "rating": 4.2
  },
  {
    "name": "Timpson Dry Cleaning (Sainsbury's)",
    "address": "Sainsbury's, John MacAdam Way, Hastings, TN37 7SQ",
    "city": "Hastings",
    "lat": 50.8800,
    "lng": 0.5360,
    "features": ["Dry Cleaning Drop-Off", "In-Store Agent", "Key Cutting"],
    "openingHours": "Mon-Sat: 9:00am - 6:00pm, Sun: 10:00am - 4:00pm",
    "website": "https://www.timpson.co.uk/",
    "isPremium": true,
    "reviewCount": 5,
    "rating": 4.1
  },
  {
    "name": "Love2Laundry Hastings (Collection/Delivery)",
    "address": "Servicing TN postcodes (Virtual Listing)",
    "city": "Hastings",
    "lat": 50.8600,
    "lng": 0.5700,
    "features": ["Collection/Delivery", "24hr Turnaround", "App Service", "Dry Cleaning"],
    "openingHours": "24/7 Booking",
    "website": "https://www.love2laundry.com/",
    "isPremium": true,
    "reviewCount": 15,
    "rating": 4.6
  },
  {
    "name": "Bexhill Launderette",
    "address": "32 Sackville Rd, Bexhill-On-Sea, TN39 3JL",
    "city": "Hastings",
    "lat": 50.8440,
    "lng": 0.4630,
    "features": ["Launderette", "Self-Service", "Late Close"],
    "openingHours": "Mon-Sun: 8:00am - 9:00pm",
    "website": "https://www.yell.com/biz/bexhill-launderette-bexhill-on-sea-10114112/",
    "isPremium": false,
    "reviewCount": 7,
    "rating": 4.2
  },
  {
    "name": "The Laundry Room (Rye)",
    "address": "2 Tower St, Rye, TN31 7PU (Est)",
    "city": "Hastings",
    "lat": 50.9500,
    "lng": 0.7300,
    "features": ["Self-Service", "Service Wash", "Historic Town Location"],
    "openingHours": "Mon-Sat: 8:30am - 5:30pm, Sun: Closed",
    "website": "",
    "isPremium": false,
    "reviewCount": 3,
    "rating": 4.0
  },
  {
    "name": "Whiter Than White",
    "address": "Little Common Road, Bexhill-On-Sea, TN39 4SD (Est)",
    "city": "Hastings",
    "lat": 50.8350,
    "lng": 0.4400,
    "features": ["Self-Service", "Attended (Partial)", "Duvet Cleaning"],
    "openingHours": "Mon-Sat: 8:00am - 6:00pm, Sun: Closed",
    "website": "https://www.yell.com/biz/whiter-than-white-bexhill-on-sea-10114098/",
    "isPremium": false,
    "reviewCount": 4,
    "rating": 4.1
  },
  {
    "name": "Revolution Laundry (Bexhill Rd)",
    "address": "286 Bexhill Road, St Leonards On Sea, TN38 8BH",
    "city": "Hastings",
    "lat": 50.8510,
    "lng": 0.5230,
    "features": ["24/7 Outdoor Machine", "Service Station Location", "Card Payment"],
    "openingHours": "24/7",
    "website": "https://stores.revolution-laundry.com/",
    "isPremium": false,
    "reviewCount": 8,
    "rating": 3.8
  },
  {
    "name": "Meads Laundromat",
    "address": "15 Meads St, Eastbourne, BN20 7QJ",
    "city": "Eastbourne",
    "lat": 50.7670,
    "lng": 0.2780,
    "features": ["Self-Service", "Service Wash", "Dry Cleaning", "35+ Years Established"],
    "openingHours": "Mon-Sun: 8:00am - 7:00pm (Last wash 6:00pm)",
    "website": "https://meadslaundromat.co.uk/",
    "isPremium": true,
    "reviewCount": 20,
    "rating": 4.8
  },
  {
    "name": "The Eastbourne Launderette",
    "address": "46 Seaside, Eastbourne, BN22 7QJ",
    "city": "Eastbourne",
    "lat": 50.7710,
    "lng": 0.2850,
    "features": ["Service Wash", "Duvet Cleaning", "Assorted Newspapers", "Collection/Delivery (Partial)"],
    "openingHours": "Mon-Fri: 8:30am - 5:30pm, Sat: 8:30am - 5:30pm, Sun: Closed",
    "website": "https://eastbournelaunderette.com/",
    "isPremium": true,
    "reviewCount": 15,
    "rating": 4.5
  },
  {
    "name": "The Grove Laundrette",
    "address": "41 Grove Rd, Eastbourne, BN21 4TX",
    "city": "Eastbourne",
    "lat": 50.7700,
    "lng": 0.2800,
    "features": ["Attended", "Self-Service", "Dry Cleaning Agent"],
    "openingHours": "Mon-Sat: 7:30am - 6:30pm, Sun: Closed",
    "website": "https://www.yell.com/biz/the-grove-laundrette-eastbourne-10023403/",
    "isPremium": false,
    "reviewCount": 10,
    "rating": 5.0
  },
  {
    "name": "Love2Laundry Eastbourne (Collection/Delivery)",
    "address": "Servicing BN postcodes (Virtual Listing)",
    "city": "Eastbourne",
    "lat": 50.7700,
    "lng": 0.2700,
    "features": ["Collection/Delivery", "24hr Turnaround", "App Service", "Dry Cleaning"],
    "openingHours": "24/7 Booking",
    "website": "https://www.love2laundry.com/",
    "isPremium": true,
    "reviewCount": 14,
    "rating": 4.6
  },
  {
    "name": "Johnsons Cleaners (Terminus Rd)",
    "address": "36 Terminus Rd, Eastbourne, BN21 3LP",
    "city": "Eastbourne",
    "lat": 50.7670,
    "lng": 0.2870,
    "features": ["Dry Cleaning", "Repairs/Alterations", "In-Store Agent"],
    "openingHours": "Mon-Fri: 8:30am - 6:00pm, Sat: 8:30am - 5:00pm, Sun: Closed",
    "website": "https://www.johnsoncleaners.com/",
    "isPremium": true,
    "reviewCount": 5,
    "rating": 4.5
  },
  {
    "name": "The Laundry Basket (Eastbourne)",
    "address": "106 Green St, Eastbourne, BN21 1RR",
    "city": "Eastbourne",
    "lat": 50.7670,
    "lng": 0.2600,
    "features": ["Ironing Service", "Laundry Service", "Collection/Delivery (Partial)"],
    "openingHours": "Mon-Fri: 9:00am - 5:00pm, Sat-Sun: Closed",
    "website": "https://www.yell.com/biz/the-laundry-basket-eastbourne-9310626/",
    "isPremium": true,
    "reviewCount": 5,
    "rating": 5.0
  },
  {
    "name": "Pevensey Launderette",
    "address": "5 High St, Pevensey, BN24 5AB (Est)",
    "city": "Eastbourne",
    "lat": 50.8170,
    "lng": 0.3340,
    "features": ["Self-Service", "Service Wash", "Village Focus"],
    "openingHours": "Mon-Sun: 7:00am - 8:00pm",
    "website": "",
    "isPremium": false,
    "reviewCount": 4,
    "rating": 4.1
  },
  {
    "name": "Hailsham Launderette",
    "address": "5 High St, Hailsham, BN27 1AR (Est)",
    "city": "Eastbourne",
    "lat": 50.8600,
    "lng": 0.2550,
    "features": ["Launderette", "Coin-Op", "Duvet Cleaning"],
    "openingHours": "Mon-Sat: 8:30am - 5:00pm, Sun: Closed",
    "website": "",
    "isPremium": false,
    "reviewCount": 6,
    "rating": 4.3
  },
  {
    "name": "Lewes Launderette",
    "address": "2 Friars Walk, Lewes, BN7 2NN (Est)",
    "city": "Eastbourne",
    "lat": 50.8710,
    "lng": 0.0070,
    "features": ["Self-Service", "Service Wash", "Attended (Partial)"],
    "openingHours": "Mon-Sat: 8:00am - 6:00pm, Sun: Closed",
    "website": "",
    "isPremium": false,
    "reviewCount": 5,
    "rating": 4.0
  },
  {
    "name": "Seaford Launderette",
    "address": "3 The Old Town Hall, Seaford, BN25 1AP (Est)",
    "city": "Eastbourne",
    "lat": 50.7710,
    "lng": 0.0820,
    "features": ["Launderette", "Dry Cleaning Agent", "Coastal Location"],
    "openingHours": "Mon-Sat: 8:30am - 5:30pm, Sun: Closed",
    "website": "",
    "isPremium": false,
    "reviewCount": 4,
    "rating": 3.9
  }
]
