[
  {
    "name": "Laundramoon Wembley (Collection/Delivery)",
    "address": "Servicing HA postcodes (Virtual Listing)",
    "city": "Wembley",
    "lat": 51.5510,
    "lng": -0.2980,
    "features": ["Collection/Delivery", "24hr Turnaround", "Eco-Friendly", "Dry Cleaning"],
    "openingHours": "24/7 Booking",
    "website": "https://www.laundramoon.com/",
    "isPremium": true,
    "reviewCount": 35,
    "rating": 4.5
  },
  {
    "name": "Cleanwash Launderette (Harrow Rd)",
    "address": "814 Harrow Rd, Wembley, HA0 3EL",
    "city": "Wembley",
    "lat": 51.5510,
    "lng": -0.3270,
    "features": ["Launderette", "Self-Service", "Local Service"],
    "openingHours": "Mon-Sun: 7:00am - 9:00pm",
    "website": "https://www.yell.com/biz/cleanwash-launderette-wembley-8600677/",
    "isPremium": false,
    "reviewCount": 4,
    "rating": 4.1
  },
  {
    "name": "Wembley Revolution Laundry",
    "address": "451-473 Cannock Road, Wembley, HA9 6LL (Outdoor Est)",
    "city": "Wembley",
    "lat": 51.5470,
    "lng": -0.2700,
    "features": ["24/7 Outdoor Machine", "Card Payment", "Large Capacity"],
    "openingHours": "24/7",
    "website": "https://stores.revolution-laundry.com/",
    "isPremium": false,
    "reviewCount": 5,
    "rating": 4.3
  },
  {
    "name": "Radish Laundry (Wembley Park)",
    "address": "310 Harrow Road, Wembley, HA9 6LL (Est)",
    "city": "Wembley",
    "lat": 51.5510,
    "lng": -0.3000,
    "features": ["Dry Cleaning", "Service Wash", "Repairs"],
    "openingHours": "Mon-Sat: 9:00am - 7:00pm, Sun: Closed",
    "website": "",
    "isPremium": false,
    "reviewCount": 2,
    "rating": 3.5
  },
  {
    "name": "Moonlight Dry Cleaners Ltd",
    "address": "8A Pop In Commercial Centre, South Way, Wembley, HA9 0HF",
    "city": "Wembley",
    "lat": 51.5450,
    "lng": -0.2780,
    "features": ["Dry Cleaning", "Commercial Service", "Alterations"],
    "openingHours": "Mon-Fri: 8:30am - 6:00pm, Sat: 9:00am - 4:00pm, Sun: Closed",
    "website": "https://www.yell.com/biz/moonlight-dry-cleaners-ltd-wembley-321150/",
    "isPremium": false,
    "reviewCount": 7,
    "rating": 4.0
  },
  {
    "name": "The Little Launderette (North Wembley)",
    "address": "116 Windermere Avenue, North Wembley, HA9 8RB (Est)",
    "city": "Wembley",
    "lat": 51.5640,
    "lng": -0.3080,
    "features": ["Self-Service", "Duvet Cleaning", "Family Run"],
    "openingHours": "Mon-Sun: 7:00am - 9:00pm",
    "website": "",
    "isPremium": false,
    "reviewCount": 1,
    "rating": 4.5
  },
  {
    "name": "The Launderette (Kingsbury)",
    "address": "40 Church Lane, Wembley, NW9 8SS (Est)",
    "city": "Wembley",
    "lat": 51.5830,
    "lng": -0.2720,
    "features": ["Coin-Op", "Service Wash", "Dry Cleaning Agent"],
    "openingHours": "Mon-Sat: 8:00am - 8:00pm, Sun: 9:00am - 5:00pm",
    "website": "",
    "isPremium": false,
    "reviewCount": 3,
    "rating": 3.8
  },
  {
    "name": "Love2Laundry Wembley (Collection/Delivery)",
    "address": "Servicing HA0, HA9 postcodes (Virtual Listing)",
    "city": "Wembley",
    "lat": 51.5550,
    "lng": -0.2850,
    "features": ["Collection/Delivery", "24hr Turnaround", "App Service"],
    "openingHours": "24/7 Booking",
    "website": "https://www.love2laundry.com/",
    "isPremium": true,
    "reviewCount": 42,
    "rating": 4.6
  },
  {
    "name": "Prime Launderette & Dry Cleaning",
    "address": "208a Preston Rd, Wembley, HA9 8PA",
    "city": "Wembley",
    "lat": 51.5610,
    "lng": -0.3080,
    "features": ["Launderette", "Dry Cleaning", "Repairs/Alterations"],
    "openingHours": "Mon-Fri: 8:00am - 7:00pm, Sat: 8:00am - 5:00pm, Sun: Closed",
    "website": "https://www.yell.com/biz/prime-launderette-and-dry-cleaners-wembley-9334557/",
    "isPremium": false,
    "reviewCount": 1,
    "rating": 1.0
  },
  {
    "name": "Sylvia Grey Dry Cleaners Ltd",
    "address": "Unit 2 Sabre House 36-38, Gorst Rd, London, NW10 6LE",
    "city": "Wembley",
    "lat": 51.5410,
    "lng": -0.2520,
    "features": ["Ironing Service", "Dry Cleaning", "Commercial", "Collection"],
    "openingHours": "Mon-Fri: 9:00am - 5:00pm, Sat-Sun: Closed",
    "website": "https://www.yell.com/biz/sylvia-grey-dry-cleaners-ltd-london-901458021/",
    "isPremium": false,
    "reviewCount": 10,
    "rating": 5.0
  },
  {
    "name": "Eurowash Centre (Whitton Rd)",
    "address": "99 Whitton Rd, Twickenham, TW1 1BZ",
    "city": "Twickenham",
    "lat": 51.4500,
    "lng": -0.3590,
    "features": ["24/7 Self-Service", "Card/Coin-Op", "Dry/Fold Service", "Lockers"],
    "openingHours": "24/7 (Attended M-F 10am-2pm)",
    "website": "http://www.eurowashcentre.com/",
    "isPremium": true,
    "reviewCount": 15,
    "rating": 4.7
  },
  {
    "name": "The Press Gang (Richmond Rd)",
    "address": "360 Richmond Rd, Twickenham, TW1 2DX",
    "city": "Twickenham",
    "lat": 51.4480,
    "lng": -0.3450,
    "features": ["Dry Cleaning", "Service Wash", "Ironing", "Tailoring"],
    "openingHours": "Mon-Fri: 8:00am - 6:00pm, Sat: 10:00am - 5:00pm, Sun: Closed",
    "website": "https://www.pressgang.co/",
    "isPremium": false,
    "reviewCount": 18,
    "rating": 4.0
  },
  {
    "name": "Love2Laundry Twickenham (Collection/Delivery)",
    "address": "Servicing TW postcodes (Virtual Listing)",
    "city": "Twickenham",
    "lat": 51.4450,
    "lng": -0.3650,
    "features": ["Collection/Delivery", "24hr Turnaround", "App Service", "Dry Cleaning"],
    "openingHours": "24/7 Booking",
    "website": "https://www.love2laundry.com/",
    "isPremium": true,
    "reviewCount": 38,
    "rating": 4.6
  },
  {
    "name": "Marble Dry Cleaners (Crown Rd)",
    "address": "47A Crown Rd, London, TW1 3EJ",
    "city": "Twickenham",
    "lat": 51.4450,
    "lng": -0.3420,
    "features": ["Dry Cleaning", "Launderette", "Hand Pressing", "Alterations"],
    "openingHours": "Mon-Fri: 9:00am - 5:00pm, Sat: 9:00am - 5:00pm, Sun: 10:00am - 6:00pm",
    "website": "https://marble-dry-cleaners.ueniweb.com/",
    "isPremium": false,
    "reviewCount": 12,
    "rating": 4.3
  },
  {
    "name": "Bubbles Launderette (Teddington)",
    "address": "191 Waldegrave Rd, Teddington, TW11 8LX",
    "city": "Twickenham",
    "lat": 51.4330,
    "lng": -0.3490,
    "features": ["Self-Service", "Duvet Cleaning", "Service Wash"],
    "openingHours": "Mon-Sun: 7:00am - 9:00pm",
    "website": "https://www.yell.com/biz/bubbles-launderette-teddington-9334557/",
    "isPremium": false,
    "reviewCount": 17,
    "rating": 4.4
  },
  {
    "name": "Premier Launderette & Dry Cleaners (Isleworth)",
    "address": "161 Thornbury Rd, Isleworth, TW7 4QG",
    "city": "Twickenham",
    "lat": 51.4640,
    "lng": -0.3470,
    "features": ["Launderette", "Dry Cleaning", "Repairs/Alterations", "Collection/Delivery"],
    "openingHours": "Mon-Fri: 9:00am - 7:00pm, Sat: 9:00am - 5:00pm, Sun: Closed",
    "website": "https://www.yell.com/biz/premier-launderette-and-dry-cleaners-isleworth-9334557/",
    "isPremium": false,
    "reviewCount": 45,
    "rating": 5.0
  },
  {
    "name": "Noble Dove Launderette",
    "address": "374 Richmond Rd, Twickenham, TW1 2DX (Est)",
    "city": "Twickenham",
    "lat": 51.4480,
    "lng": -0.3450,
    "features": ["Launderette", "Self-Service", "Dry Cleaning Agent"],
    "openingHours": "Mon-Fri: 9:00am - 5:00pm, Sat: 9:00am - 1:00pm, Sun: Closed",
    "website": "https://www.yell.com/biz/noble-dove-launderette-twickenham-9334557/",
    "isPremium": false,
    "reviewCount": 16,
    "rating": 4.9
  },
  {
    "name": "Richmond Launderette",
    "address": "12 Kew Rd, Richmond, TW9 2PN (Est)",
    "city": "Twickenham",
    "lat": 51.4660,
    "lng": -0.2920,
    "features": ["Town Centre", "Coin-Op", "Dry Cleaning Agent"],
    "openingHours": "Mon-Sun: 7:30am - 8:30pm",
    "website": "",
    "isPremium": false,
    "reviewCount": 5,
    "rating": 4.0
  },
  {
    "name": "Whitton Village Launderette",
    "address": "100 High St, Whitton, TW2 7BX (Est)",
    "city": "Twickenham",
    "lat": 51.4450,
    "lng": -0.3750,
    "features": ["Village Service", "Self-Service", "Service Wash"],
    "openingHours": "Mon-Sat: 8:30am - 6:00pm, Sun: 9:00am - 5:00pm",
    "website": "",
    "isPremium": false,
    "reviewCount": 3,
    "rating": 4.1
  },
  {
    "name": "Kew Gardens Launderette",
    "address": "17 Sandycombe Rd, Kew, TW9 2EP (Est)",
    "city": "Twickenham",
    "lat": 51.4700,
    "lng": -0.2880,
    "features": ["Dry Cleaning Agent", "Local Service"],
    "openingHours": "Mon-Fri: 9:00am - 5:30pm, Sat: 9:00am - 1:00pm, Sun: Closed",
    "website": "",
    "isPremium": false,
    "reviewCount": 1,
    "rating": 4.3
  },
  {
    "name": "Wimbledon Drycleaners & Launderers",
    "address": "106 The Broadway, Wimbledon, SW19 1RH",
    "city": "Wimbledon",
    "lat": 51.4190,
    "lng": -0.1980,
    "features": ["Dry Cleaning", "Launderette", "Tailoring/Alterations", "Same Day Service"],
    "openingHours": "Mon-Sat: 7:30am - 7:00pm, Sun: Closed",
    "website": "https://wimbledondrycleaner.com/",
    "isPremium": true,
    "reviewCount": 30,
    "rating": 4.8
  },
  {
    "name": "KINGSMIR Dry Cleaners (Hill Rd)",
    "address": "36 Wimbledon Hill Rd, London, SW19 7PA",
    "city": "Wimbledon",
    "lat": 51.4210,
    "lng": -0.2060,
    "features": ["Premium Dry Cleaning", "Tailoring", "Free Delivery", "Central Location"],
    "openingHours": "Mon-Fri: 7:30am - 7:00pm, Sat: 8:30am - 6:00pm, Sun: Closed",
    "website": "https://kingsmerecleaners.com/",
    "isPremium": true,
    "reviewCount": 25,
    "rating": 4.7
  },
  {
    "name": "Love2Laundry Wimbledon (Collection/Delivery)",
    "address": "Servicing SW19 postcodes (Virtual Listing)",
    "city": "Wimbledon",
    "lat": 51.4230,
    "lng": -0.2000,
    "features": ["Collection/Delivery", "24hr Turnaround", "App Service"],
    "openingHours": "24/7 Booking",
    "website": "https://www.love2laundry.com/",
    "isPremium": true,
    "reviewCount": 65,
    "rating": 4.6
  },
  {
    "name": "Ducane Dry Cleaners & Laundry Services",
    "address": "21 Wimbledon Bridge, London, SW19 7NH",
    "city": "Wimbledon",
    "lat": 51.4180,
    "lng": -0.1970,
    "features": ["Dry Cleaning", "Launderette", "Shoe Repairs", "Key Cutting"],
    "openingHours": "Mon-Fri: 7:00am - 6:00pm, Sat: 7:00am - 6:00pm, Sun: Closed",
    "website": "https://www.yell.com/biz/ducane-dry-cleaners-laundry-services-london-9334557/",
    "isPremium": false,
    "reviewCount": 15,
    "rating": 4.0
  },
  {
    "name": "Village Launderette Drycleaning (Ridgway)",
    "address": "10 Ridgway, London, SW19 4QN",
    "city": "Wimbledon",
    "lat": 51.4170,
    "lng": -0.2100,
    "features": ["Ironing Service", "Dry Cleaning", "Self-Service", "Attended"],
    "openingHours": "Mon-Fri: 7:30am - 7:00pm, Sat: 7:30am - 6:00pm, Sun: 9:00am - 5:00pm",
    "website": "https://www.yell.com/biz/village-launderette-drycleaning-london-9334557/",
    "isPremium": false,
    "reviewCount": 10,
    "rating": 4.4
  },
  {
    "name": "Raynes Park Laundrette",
    "address": "10 Coombe Lane, Raynes Park, SW20 0LA (Est)",
    "city": "Wimbledon",
    "lat": 51.4010,
    "lng": -0.2290,
    "features": ["Self-Service", "Service Wash", "Duvet Cleaning"],
    "openingHours": "Mon-Sun: 7:00am - 9:00pm",
    "website": "",
    "isPremium": false,
    "reviewCount": 5,
    "rating": 4.2
  },
  {
    "name": "The Launderette (SW8 Battersea)",
    "address": "137 South Lambeth Rd, London, SW8 1XB (Est)",
    "city": "Wimbledon",
    "lat": 51.4740,
    "lng": -0.1340,
    "features": ["Coin-Op", "Service Wash", "Ironing", "Open 7 Days"],
    "openingHours": "Mon-Sun: 7:00am - 9:30pm",
    "website": "https://www.yell.com/biz/the-launderette-london-9334557/",
    "isPremium": false,
    "reviewCount": 20,
    "rating": 4.2
  },
  {
    "name": "Cleaners Direct (Mitcham)",
    "address": "10 London Rd, Mitcham, CR4 3YQ (Est)",
    "city": "Wimbledon",
    "lat": 51.4000,
    "lng": -0.1740,
    "features": ["Dry Cleaning", "Laundry", "Alterations"],
    "openingHours": "Mon-Sat: 8:00am - 6:00pm, Sun: Closed",
    "website": "",
    "isPremium": false,
    "reviewCount": 3,
    "rating": 4.0
  },
  {
    "name": "Morden Washeteria",
    "address": "15 Crown Rd, Morden, SM4 5DD (Est)",
    "city": "Wimbledon",
    "lat": 51.4050,
    "lng": -0.2000,
    "features": ["Self-Service", "Attended (Partial)"],
    "openingHours": "Mon-Sun: 7:00am - 9:00pm",
    "website": "",
    "isPremium": false,
    "reviewCount": 2,
    "rating": 3.7
  },
  {
    "name": "Colliers Wood Launderette",
    "address": "100 High St, Colliers Wood, SW19 2AB (Est)",
    "city": "Wimbledon",
    "lat": 51.4110,
    "lng": -0.1850,
    "features": ["Coin-Op", "Duvet Cleaning", "Long Hours"],
    "openingHours": "Mon-Sun: 6:00am - 10:00pm",
    "website": "",
    "isPremium": false,
    "reviewCount": 1,
    "rating": 3.9
  }
]
