[
  {
    "name": "Love2Laundry Croydon (Collection/Delivery)",
    "address": "Servicing CR postcodes (Virtual Listing)",
    "city": "Croydon",
    "lat": 51.3760,
    "lng": -0.1000,
    "features": ["Collection/Delivery", "24hr Turnaround", "App Service", "Dry Cleaning"],
    "openingHours": "24/7 Booking",
    "website": "https://www.love2laundry.com/",
    "isPremium": true,
    "reviewCount": 45,
    "rating": 4.6
  },
  {
    "name": "ihateironing Croydon (Collection/Delivery)",
    "address": "Servicing CR0 postcodes (Virtual Listing)",
    "city": "Croydon",
    "lat": 51.3800,
    "lng": -0.1050,
    "features": ["Collection/Delivery", "24hr Dry Cleaning", "Alterations", "Shoe Repair"],
    "openingHours": "Mon-Sun: Flexible Collection",
    "website": "https://www.ihateironing.com/",
    "isPremium": true,
    "reviewCount": 30,
    "rating": 4.8
  },
  {
    "name": "Croydon Dry Cleaners (St George's Walk)",
    "address": "32 St George's Walk, Croydon, CR0 1YJ",
    "city": "Croydon",
    "lat": 51.3750,
    "lng": -0.0960,
    "features": ["Dry Cleaning", "Laundry", "Alterations", "Town Centre"],
    "openingHours": "Mon-Sat: 9:00am - 6:00pm, Sun: Closed",
    "website": "https://croydondrycleaners.co.uk/",
    "isPremium": false,
    "reviewCount": 8,
    "rating": 4.2
  },
  {
    "name": "Purley Way Revolution Laundry (Morrison's)",
    "address": "500 Purley Way, Croydon, CR0 4NZ (Outdoor)",
    "city": "Croydon",
    "lat": 51.3780,
    "lng": -0.1230,
    "features": ["24/7 Outdoor Machine", "Card Payment", "Large Capacity"],
    "openingHours": "24/7",
    "website": "https://stores.revolution-laundry.com/",
    "isPremium": false,
    "reviewCount": 5,
    "rating": 4.3
  },
  {
    "name": "Pristine Dry Cleaners (South Croydon)",
    "address": "321 Brighton Rd, South Croydon, CR2 6EQ",
    "city": "Croydon",
    "lat": 51.3650,
    "lng": -0.0910,
    "features": ["Dry Cleaning", "Established Business"],
    "openingHours": "Mon-Sat: 8:30am - 7:00pm, Sun: Closed",
    "website": "https://www.yell.com/biz/pristine-dry-cleaners-south-croydon-9334557/",
    "isPremium": false,
    "reviewCount": 4,
    "rating": 2.8
  },
  {
    "name": "Orchid Cleaners (Bywood Avenue)",
    "address": "22 Bywood Avenue, Croydon, CR0 7RA",
    "city": "Croydon",
    "lat": 51.3870,
    "lng": -0.0780,
    "features": ["Launderette", "Service Wash", "Local Focus"],
    "openingHours": "Mon-Sat: 9:00am - 6:00pm, Sun: Closed",
    "website": "https://www.yell.com/biz/orchid-cleaners-croydon-9334557/",
    "isPremium": false,
    "reviewCount": 1,
    "rating": 3.0
  },
  {
    "name": "Sutton Wash Inn",
    "address": "120 Westmead Rd, Sutton, SM1 4JE",
    "city": "Sutton",
    "lat": 51.3720,
    "lng": -0.1830,
    "features": ["Launderette", "Self-Service", "Service Wash"],
    "openingHours": "Mon-Sun: 7:00am - 9:00pm",
    "website": "https://www.yell.com/biz/sutton-wash-inn-sutton-4153867/",
    "isPremium": false,
    "reviewCount": 1,
    "rating": 4.0
  },
  {
    "name": "Washeteria Laundry (Sutton High St)",
    "address": "38 High St, Sutton, SM3 8RW",
    "city": "Sutton",
    "lat": 51.3650,
    "lng": -0.1900,
    "features": ["Launderette", "Dry Cleaning Agent", "Repairs/Alterations"],
    "openingHours": "Mon-Sat: 8:00am - 8:30pm, Sun: Closed",
    "website": "https://www.yell.com/biz/washateria-laundry-sutton-9334557/",
    "isPremium": false,
    "reviewCount": 1,
    "rating": 5.0
  },
  {
    "name": "Love2Laundry Sutton (Collection/Delivery)",
    "address": "Servicing SM postcodes (Virtual Listing)",
    "city": "Sutton",
    "lat": 51.3600,
    "lng": -0.1850,
    "features": ["Collection/Delivery", "24hr Turnaround", "App Service", "Dry Cleaning"],
    "openingHours": "24/7 Booking",
    "website": "https://www.love2laundry.com/",
    "isPremium": true,
    "reviewCount": 60,
    "rating": 4.7
  },
  {
    "name": "The Little Ironing Shop (Belmont)",
    "address": "7 Station Rd, Sutton, SM2 6BG",
    "city": "Sutton",
    "lat": 51.3590,
    "lng": -0.1780,
    "features": ["Ironing Service", "Laundry", "Collection/Delivery"],
    "openingHours": "Mon-Fri: 8:30am - 5:30pm, Sat-Sun: Closed",
    "website": "https://www.yell.com/biz/the-little-ironing-shop-sutton-9334557/",
    "isPremium": false,
    "reviewCount": 3,
    "rating": 3.7
  },
  {
    "name": "Abey Dry Cleaners (Carshalton)",
    "address": "30 Green Wrythe Lane, Carshalton, SM5 2DW",
    "city": "Sutton",
    "lat": 51.3820,
    "lng": -0.1860,
    "features": ["Dry Cleaning", "Launderette", "Alterations"],
    "openingHours": "Mon-Sat: 8:00am - 6:00pm, Sun: Closed",
    "website": "https://www.yell.com/biz/abey-dry-cleaners-carshalton-9334557/",
    "isPremium": false,
    "reviewCount": 2,
    "rating": 4.0
  },
  {
    "name": "Morden Washeteria (Crown Rd)",
    "address": "15 Crown Rd, Morden, SM4 5DD (Est)",
    "city": "Sutton",
    "lat": 51.4050,
    "lng": -0.2000,
    "features": ["Self-Service", "Attended (Partial)"],
    "openingHours": "Mon-Sun: 7:00am - 9:00pm",
    "website": "",
    "isPremium": false,
    "reviewCount": 2,
    "rating": 3.7
  },
  {
    "name": "The Launderette (Mitcham)",
    "address": "349 London Rd, Mitcham, CR4 4SA",
    "city": "Sutton",
    "lat": 51.4000,
    "lng": -0.1650,
    "features": ["Launderette", "Dry Cleaning"],
    "openingHours": "Mon-Sun: 7:00am - 9:00pm",
    "website": "https://www.yell.com/biz/the-launderette-mitcham-9334557/",
    "isPremium": false,
    "reviewCount": 3,
    "rating": 4.1
  },
  {
    "name": "Hackbridge Cleaners Ltd",
    "address": "29 London Rd, Wallington, SM6 7HW",
    "city": "Sutton",
    "lat": 51.3650,
    "lng": -0.1580,
    "features": ["Dry Cleaning", "Repairs", "Service Wash Agent"],
    "openingHours": "Mon-Fri: 7:30am - 7:30pm, Sat: 8:00am - 6:00pm, Sun: Closed",
    "website": "https://www.yell.com/biz/hackbridge-cleaners-ltd-wallington-9334557/",
    "isPremium": false,
    "reviewCount": 2,
    "rating": 3.0
  },
  {
    "name": "Mitcham Dry Clean & Laundrette (London Rd)",
    "address": "163 London Rd, Mitcham, CR4 2JB",
    "city": "Sutton",
    "lat": 51.4020,
    "lng": -0.1640,
    "features": ["Launderette", "Dry Cleaning", "Service Wash"],
    "openingHours": "Mon-Sat: 7:00am - 7:00pm, Sun: Closed",
    "website": "https://www.yell.com/biz/mitcham-dry-clean-launderette-mitcham-9334557/",
    "isPremium": false,
    "reviewCount": 2,
    "rating": 4.0
  },
  {
    "name": "The Village Launderette (Shortlands)",
    "address": "91 Beckenham Lane, Shortlands, Bromley, BR2 0DN",
    "city": "Bromley",
    "lat": 51.4000,
    "lng": 0.0050,
    "features": ["Launderette", "Ironing Service", "Family Run", "Open 7 Days"],
    "openingHours": "Mon-Sun: 7:00am - 7:00pm",
    "website": "https://www.yell.com/biz/the-village-launderette-bromley-3204227/",
    "isPremium": true,
    "reviewCount": 5,
    "rating": 4.6
  },
  {
    "name": "Love2Laundry Bromley (Collection/Delivery)",
    "address": "Servicing BR postcodes (Virtual Listing)",
    "city": "Bromley",
    "lat": 51.4050,
    "lng": 0.0100,
    "features": ["Collection/Delivery", "24hr Turnaround", "App Service", "Dry Cleaning"],
    "openingHours": "24/7 Booking",
    "website": "https://www.love2laundry.com/",
    "isPremium": true,
    "reviewCount": 55,
    "rating": 4.6
  },
  {
    "name": "Plaistow Lane Launderette",
    "address": "12 Plaistow Lane, Bromley, BR1 3PA",
    "city": "Bromley",
    "lat": 51.4010,
    "lng": 0.0190,
    "features": ["Coin-Op", "Self-Service", "Local Service"],
    "openingHours": "Mon-Fri: 9:00am - 7:00pm, Sat: 9:00am - 5:00pm, Sun: Closed",
    "website": "https://www.yell.com/biz/plaistow-lane-launderette-bromley-9334557/",
    "isPremium": false,
    "reviewCount": 1,
    "rating": 3.0
  },
  {
    "name": "Chatterton Road Launderette",
    "address": "35 Chatterton Rd, Bromley, BR2 9QW",
    "city": "Bromley",
    "lat": 51.3910,
    "lng": 0.0380,
    "features": ["Self-Service", "Wash & Dry", "Clean Facilities"],
    "openingHours": "Mon-Fri: 8:00am - 8:00pm, Sat: 8:00am - 6:00pm, Sun: Closed",
    "website": "https://www.yell.com/biz/chatterton-road-launderette-bromley-9334557/",
    "isPremium": false,
    "reviewCount": 3,
    "rating": 4.0
  },
  {
    "name": "The Launderette (West Wickham)",
    "address": "77 Station Rd, West Wickham, BR4 0PX",
    "city": "Bromley",
    "lat": 51.3750,
    "lng": 0.0130,
    "features": ["Launderette", "Self-Service", "Service Wash", "Duvet Cleaning"],
    "openingHours": "Mon-Sun: 7:00am - 9:00pm",
    "website": "https://www.yell.com/biz/the-launderette-west-wickham-9334557/",
    "isPremium": false,
    "reviewCount": 1,
    "rating": 4.0
  },
  {
    "name": "Beckenham Laundrette",
    "address": "413 Croydon Rd, Beckenham, BR3 3PP",
    "city": "Bromley",
    "lat": 51.4020,
    "lng": -0.0210,
    "features": ["Launderette", "Coin-Op", "Attended (Partial)"],
    "openingHours": "Mon-Fri: 7:45am - 7:00pm, Sat: 7:45am - 5:00pm, Sun: Closed",
    "website": "https://www.yell.com/biz/beckenham-launderette-beckenham-9334557/",
    "isPremium": false,
    "reviewCount": 2,
    "rating": 3.9
  },
  {
    "name": "Regal Cleaners (Croydon Rd)",
    "address": "426 Croydon Rd, Beckenham, BR3 4EP",
    "city": "Bromley",
    "lat": 51.3890,
    "lng": -0.0170,
    "features": ["Dry Cleaning", "Alterations", "High Quality"],
    "openingHours": "Mon-Fri: 8:30am - 6:30pm, Sat: 8:30am - 5:00pm, Sun: Closed",
    "website": "https://www.yell.com/biz/regal-cleaners-beckenham-9334557/",
    "isPremium": false,
    "reviewCount": 2,
    "rating": 3.0
  },
  {
    "name": "Whiteleys Cleaners (West Wickham)",
    "address": "1-3 Ravenswood Crescent, West Wickham, BR4 0JH",
    "city": "Bromley",
    "lat": 51.3850,
    "lng": 0.0190,
    "features": ["Dry Cleaning", "Bespoke Service", "Commercial"],
    "openingHours": "Mon-Sat: 8:30am - 5:30pm, Sun: Closed",
    "website": "https://www.yell.com/biz/whiteleys-cleaners-west-wickham-9334557/",
    "isPremium": false,
    "reviewCount": 5,
    "rating": 3.6
  },
  {
    "name": "Flower Fresh Launderette & Dry Cleaning (Orpington)",
    "address": "350 High St, Orpington, BR6 0NQ",
    "city": "Bromley",
    "lat": 51.3740,
    "lng": 0.0980,
    "features": ["Launderette", "Dry Cleaning", "Ironing Service"],
    "openingHours": "Mon-Sat: 8:30am - 6:00pm, Sun: Closed",
    "website": "https://www.yell.com/biz/flower-fresh-launderette-dry-cleaning-orpington-9334557/",
    "isPremium": false,
    "reviewCount": 5,
    "rating": 4.8
  },
  {
    "name": "BR3 Dry Cleaners (Beckenham Rd)",
    "address": "92 Croydon Rd, Beckenham, BR3 4DF",
    "city": "Bromley",
    "lat": 51.4010,
    "lng": -0.0380,
    "features": ["Dry Cleaning", "Tailoring/Repairs", "Launderette Agent"],
    "openingHours": "Mon-Fri: 8:00am - 6:00pm, Sat: 8:00am - 5:00pm, Sun: Closed",
    "website": "https://www.yell.com/biz/br3-dry-cleaners-tailoring-repairs-alterations-beckenham-9334557/",
    "isPremium": false,
    "reviewCount": 2,
    "rating": 3.0
  },
  {
    "name": "Sydenham Laundrette",
    "address": "317 Sydenham Rd, London, SE26 5EW (Est)",
    "city": "Bromley",
    "lat": 51.4250,
    "lng": 0.0500,
    "features": ["Launderette", "Coin-Op", "Self-Service"],
    "openingHours": "Mon-Sun: 7:00am - 9:00pm",
    "website": "https://www.yell.com/biz/sydenham-launderette-london-9334557/",
    "isPremium": false,
    "reviewCount": 1,
    "rating": 3.0
  },
  {
    "name": "Bellingham Dry Cleaners (Randlesdown Rd)",
    "address": "30 Randlesdown Rd, London, SE6 3BT (Est)",
    "city": "Bromley",
    "lat": 51.4420,
    "lng": -0.0240,
    "features": ["Dry Cleaning", "Laundry", "Alterations"],
    "openingHours": "Mon-Sat: 7:30am - 6:30pm, Sun: Closed",
    "website": "",
    "isPremium": false,
    "reviewCount": 2,
    "rating": 4.0
  },
  {
    "name": "Eltham Laundrette & Ironing Services",
    "address": "277 High St, London, SE9 1TY (Est)",
    "city": "Bromley",
    "lat": 51.4500,
    "lng": 0.0380,
    "features": ["Launderette", "Ironing Service", "Duvet Cleaning"],
    "openingHours": "Mon-Sat: 9:00am - 6:00pm, Sun: Closed",
    "website": "https://www.yell.com/biz/eltham-launderette-ironing-services-london-9334557/",
    "isPremium": false,
    "reviewCount": 2,
    "rating": 5.0
  },
  {
    "name": "Penge Launderette",
    "address": "153 High St, Penge, SE20 7DS (Est)",
    "city": "Bromley",
    "lat": 51.4160,
    "lng": -0.0570,
    "features": ["Self-Service", "Coin-Op", "Long Hours"],
    "openingHours": "Mon-Sun: 7:00am - 9:00pm",
    "website": "",
    "isPremium": false,
    "reviewCount": 3,
    "rating": 4.1
  },
  {
    "name": "Anerley Launderette",
    "address": "100 Anerley Rd, Anerley, SE20 8AZ (Est)",
    "city": "Bromley",
    "lat": 51.4080,
    "lng": -0.0570,
    "features": ["Self-Service", "Service Wash"],
    "openingHours": "Mon-Sat: 8:00am - 6:00pm, Sun: Closed",
    "website": "",
    "isPremium": false,
    "reviewCount": 1,
    "rating": 3.5
  },
  {
    "name": "Chislehurst Ironing Shop",
    "address": "40 White Horse Hill, Chislehurst, BR7 6DL (Est)",
    "city": "Bromley",
    "lat": 51.4230,
    "lng": 0.0750,
    "features": ["Ironing Service", "Dry Cleaning", "Alterations"],
    "openingHours": "Mon-Sat: 9:00am - 5:00pm, Sun: Closed",
    "website": "https://www.yell.com/biz/the-ironing-shop-chislehurst-9334557/",
    "isPremium": false,
    "reviewCount": 28,
    "rating": 4.9
  },
  {
    "name": "Farnborough Revolution Laundry",
    "address": "Farnborough Way, Orpington, BR6 7ET (Outdoor Est)",
    "city": "Bromley",
    "lat": 51.3770,
    "lng": 0.0430,
    "features": ["24/7 Outdoor Machine", "Card Payment", "Large Capacity"],
    "openingHours": "24/7",
    "website": "https://stores.revolution-laundry.com/",
    "isPremium": false,
    "reviewCount": 3,
    "rating": 4.3
  }
]
