[
  {
    "name": "Grantham Launderette",
    "address": "2 South Ampton Rd, Grantham, NG31 6NJ",
    "city": "Grantham",
    "lat": 52.9102,
    "lng": -0.6385,
    "features": ["Self-Service", "Service Wash", "Coin-Op", "Dryers Only"],
    "openingHours": "Mon-Sun: 8:00am - 8:00pm",
    "website": "https://www.yell.com/biz/grantham-launderette-grantham-7902643/",
    "isPremium": false,
    "reviewCount": 15,
    "rating": 3.2
  },
  {
    "name": "Laundry Bliss (Grantham)",
    "address": "16 London Rd, Grantham, NG31 6HN (Est)",
    "city": "Grantham",
    "lat": 52.9100,
    "lng": -0.6340,
    "features": ["Collection/Delivery", "Ironing", "Commercial Laundry", "Hypoallergenic Products"],
    "openingHours": "Mon-Sat: 9:00am - 5:00pm, Sun: Closed",
    "website": "https://www.laundry-bliss.co.uk/",
    "isPremium": true,
    "reviewCount": 8,
    "rating": 4.5
  },
  {
    "name": "Love2Laundry Grantham (Collection/Delivery)",
    "address": "Servicing NG postcodes (Virtual Listing)",
    "city": "Grantham",
    "lat": 52.9100,
    "lng": -0.6300,
    "features": ["Collection/Delivery", "24hr Turnaround", "App Service", "Dry Cleaning"],
    "openingHours": "24/7 Booking",
    "website": "https://www.love2laundry.com/",
    "isPremium": true,
    "reviewCount": 10,
    "rating": 4.6
  },
  {
    "name": "Timpson Dry Cleaning (Grantham Sainsbury's)",
    "address": "Sainsbury's, London Road, Grantham, NG31 6HJ",
    "city": "Grantham",
    "lat": 52.9060,
    "lng": -0.6400,
    "features": ["Dry Cleaning Drop-Off", "In-Store Agent", "Key Cutting"],
    "openingHours": "Mon-Sat: 9:00am - 6:00pm, Sun: 10:00am - 4:00pm",
    "website": "https://www.johnsoncleaners.com/",
    "isPremium": true,
    "reviewCount": 5,
    "rating": 4.3
  },
  {
    "name": "Wash ME Launderette (Manthorpe Road)",
    "address": "Manthorpe Road, Grantham, NG31 8BZ",
    "city": "Grantham",
    "lat": 52.9300,
    "lng": -0.6270,
    "features": ["24/7 Outdoor Machine", "Large Capacity", "Card Payment", "Duvet Cleaning"],
    "openingHours": "24/7",
    "website": "https://stores.revolution-laundry.com/",
    "isPremium": false,
    "reviewCount": 3,
    "rating": 4.0
  },
  {
    "name": "Barrowby Launderette",
    "address": "The Square, Barrowby, Grantham, NG32 1BD (Est)",
    "city": "Grantham",
    "lat": 52.9200,
    "lng": -0.6700,
    "features": ["Self-Service", "Village Focus", "Coin-Op"],
    "openingHours": "Mon-Sun: 8:00am - 7:00pm",
    "website": "",
    "isPremium": false,
    "reviewCount": 2,
    "rating": 3.5
  },
  {
    "name": "Bottesford Launderette",
    "address": "Main St, Bottesford, NG13 0DB (Est)",
    "city": "Grantham",
    "lat": 52.9560,
    "lng": -0.7850,
    "features": ["Launderette", "Service Wash (Partial)", "Rural Focus"],
    "openingHours": "Mon-Fri: 9:00am - 4:00pm, Sat-Sun: Closed",
    "website": "",
    "isPremium": false,
    "reviewCount": 1,
    "rating": 4.0
  },
  {
    "name": "Newark Launderette",
    "address": "55 Barnby Gate, Newark-on-Trent, NG24 1PZ (Est)",
    "city": "Grantham",
    "lat": 53.0760,
    "lng": -0.8060,
    "features": ["Self-Service", "Service Wash", "Duvet Cleaning", "Town Centre"],
    "openingHours": "Mon-Sun: 7:00am - 9:00pm",
    "website": "",
    "isPremium": false,
    "reviewCount": 7,
    "rating": 4.2
  },
  {
    "name": "Long Bennington Launderette",
    "address": "Main Rd, Long Bennington, NG23 5DJ (Est)",
    "city": "Grantham",
    "lat": 53.0050,
    "lng": -0.6900,
    "features": ["Launderette", "Coin-Op"],
    "openingHours": "Mon-Sun: 8:00am - 6:00pm",
    "website": "",
    "isPremium": false,
    "reviewCount": 1,
    "rating": 3.0
  },
  {
    "name": "Allington Launderette",
    "address": "Main St, Allington, NG32 2EF (Est)",
    "city": "Grantham",
    "lat": 52.9500,
    "lng": -0.7180,
    "features": ["Self-Service", "Village Focus"],
    "openingHours": "Mon-Sat: 9:00am - 5:00pm, Sun: Closed",
    "website": "",
    "isPremium": false,
    "reviewCount": 2,
    "rating": 3.8
  },
  {
    "name": "Sleaford Launderette",
    "address": "16 Northgate, Sleaford, NG34 7BJ",
    "city": "Sleaford",
    "lat": 52.9980,
    "lng": -0.4070,
    "features": ["Fully Attended", "Dry Cleaning Agent", "Service Wash", "Duvet Cleaning"],
    "openingHours": "Mon-Fri: 8:30am - 6:00pm, Sat: 8:30am - 4:00pm, Sun: Closed",
    "website": "https://www.businessnk.co.uk/business/sleaford-launderette/",
    "isPremium": true,
    "reviewCount": 10,
    "rating": 4.5
  },
  {
    "name": "Johnsons Cleaners (Sleaford Tesco)",
    "address": "Tesco, Boston Rd, Sleaford, NG34 7HD",
    "city": "Sleaford",
    "lat": 52.9920,
    "lng": -0.4000,
    "features": ["Dry Cleaning Drop-Off", "In-Store Agent", "Clothing Repairs"],
    "openingHours": "Mon-Sat: 9:00am - 5:30pm, Sun: Closed",
    "website": "https://www.yell.com/biz/johnsons-cleaners-sleaford-9749765/",
    "isPremium": true,
    "reviewCount": 4,
    "rating": 4.1
  },
  {
    "name": "Love2Laundry Sleaford (Collection/Delivery)",
    "address": "Servicing NG postcodes (Virtual Listing)",
    "city": "Sleaford",
    "lat": 52.9900,
    "lng": -0.4000,
    "features": ["Collection/Delivery", "24hr Turnaround", "App Service", "Dry Cleaning"],
    "openingHours": "24/7 Booking",
    "website": "https://www.love2laundry.com/",
    "isPremium": true,
    "reviewCount": 8,
    "rating": 4.6
  },
  {
    "name": "Wash ME Launderette (Holdingham Garage)",
    "address": "Lincoln Road, Holdingham Garage, Sleaford, NG34 8NP",
    "city": "Sleaford",
    "lat": 53.0100,
    "lng": -0.4200,
    "features": ["24/7 Outdoor Machine", "Large Capacity", "Card Payment"],
    "openingHours": "24/7",
    "website": "https://stores.revolution-laundry.com/",
    "isPremium": false,
    "reviewCount": 3,
    "rating": 4.0
  },
  {
    "name": "Tesco Express Sleaford Launderette",
    "address": "1 Southgate, Sleaford, NG34 7SY (Est)",
    "city": "Sleaford",
    "lat": 52.9980,
    "lng": -0.4060,
    "features": ["Self-Service", "Convenience Location", "Coin-Op"],
    "openingHours": "Mon-Sun: 7:00am - 9:00pm",
    "website": "",
    "isPremium": false,
    "reviewCount": 4,
    "rating": 3.7
  },
  {
    "name": "Ruskington Launderette",
    "address": "12 High St, Ruskington, NG34 9DT (Est)",
    "city": "Sleaford",
    "lat": 53.0560,
    "lng": -0.4220,
    "features": ["Launderette", "Service Wash", "Local Focus"],
    "openingHours": "Mon-Sat: 8:00am - 5:00pm, Sun: Closed",
    "website": "",
    "isPremium": false,
    "reviewCount": 3,
    "rating": 4.1
  },
  {
    "name": "Washing Well (Heckington)",
    "address": "Boston Rd, Heckington, NG34 9JJ (Est)",
    "city": "Sleaford",
    "lat": 53.0200,
    "lng": -0.3200,
    "features": ["Self-Service", "Coin-Op", "Rural Area"],
    "openingHours": "Mon-Sun: 7:00am - 8:00pm",
    "website": "",
    "isPremium": false,
    "reviewCount": 2,
    "rating": 3.9
  },
  {
    "name": "Cranwell Launderette",
    "address": "RAF Cranwell Base, NG34 8HE (Est - Public Access)",
    "city": "Sleaford",
    "lat": 53.0330,
    "lng": -0.4850,
    "features": ["Launderette", "Self-Service", "Military Base Area"],
    "openingHours": "Mon-Sun: 6:00am - 10:00pm",
    "website": "",
    "isPremium": false,
    "reviewCount": 1,
    "rating": 3.5
  },
  {
    "name": "Billinghay Launderette",
    "address": "The Causeway, Billinghay, LN4 4ED (Est)",
    "city": "Sleaford",
    "lat": 53.0800,
    "lng": -0.2200,
    "features": ["Self-Service", "Small Town Focus"],
    "openingHours": "Mon-Sat: 8:30am - 5:30pm, Sun: Closed",
    "website": "",
    "isPremium": false,
    "reviewCount": 2,
    "rating": 4.0
  },
  {
    "name": "Ancaster Launderette",
    "address": "High St, Ancaster, NG32 3QZ (Est)",
    "city": "Sleaford",
    "lat": 52.9800,
    "lng": -0.5000,
    "features": ["Self-Service", "Coin-Op"],
    "openingHours": "Mon-Sun: 7:00am - 7:00pm",
    "website": "",
    "isPremium": false,
    "reviewCount": 1,
    "rating": 3.0
  },
  {
    "name": "Regency Dry Cleaners (Boston)",
    "address": "24 Dolphin Lane, Boston, PE21 6EU",
    "city": "Boston",
    "lat": 52.9800,
    "lng": -0.0210,
    "features": ["Dry Cleaning", "On-Site Cleaning", "Tailoring Agent"],
    "openingHours": "Mon-Fri: 8:00am - 4:00pm, Sat: 8:30am - 3:00pm, Sun: Closed",
    "website": "http://www.regencyboston.co.uk/",
    "isPremium": true,
    "reviewCount": 5,
    "rating": 4.4
  },
  {
    "name": "Wash ME Launderette (John Adams Way)",
    "address": "John Adams Way, Boston, PE21 6TQ",
    "city": "Boston",
    "lat": 52.9800,
    "lng": 0.0280,
    "features": ["24/7 Outdoor Machine", "Large Capacity", "Card Payment", "Duvet Cleaning"],
    "openingHours": "24/7",
    "website": "https://stores.revolution-laundry.com/",
    "isPremium": false,
    "reviewCount": 6,
    "rating": 4.1
  },
  {
    "name": "Wash ME Launderette (Argyle Street)",
    "address": "52-60 Argyle Street, Boston, PE21 8PH",
    "city": "Boston",
    "lat": 52.9750,
    "lng": -0.0100,
    "features": ["24/7 Outdoor Machine", "Large Capacity", "Convenience Location"],
    "openingHours": "24/7",
    "website": "https://stores.revolution-laundry.com/",
    "isPremium": false,
    "reviewCount": 4,
    "rating": 3.9
  },
  {
    "name": "Love2Laundry Boston (Collection/Delivery)",
    "address": "Servicing PE postcodes (Virtual Listing)",
    "city": "Boston",
    "lat": 52.9760,
    "lng": 0.0200,
    "features": ["Collection/Delivery", "24hr Turnaround", "App Service", "Dry Cleaning"],
    "openingHours": "24/7 Booking",
    "website": "https://www.love2laundry.com/",
    "isPremium": true,
    "reviewCount": 8,
    "rating": 4.5
  },
  {
    "name": "Spalding Launderette",
    "address": "25 Sheep Market, Spalding, PE11 1BG (Est)",
    "city": "Boston",
    "lat": 52.7850,
    "lng": -0.1550,
    "features": ["Self-Service", "Service Wash", "Town Centre"],
    "openingHours": "Mon-Sat: 8:00am - 6:00pm, Sun: Closed",
    "website": "",
    "isPremium": false,
    "reviewCount": 7,
    "rating": 4.2
  },
  {
    "name": "Skegness Washeteria",
    "address": "128 Roman Bank, Skegness, PE25 1RZ (Est)",
    "city": "Boston",
    "lat": 53.1410,
    "lng": 0.3340,
    "features": ["Self-Service", "Coastal Location", "Long Hours"],
    "openingHours": "Mon-Sun: 8:00am - 10:00pm",
    "website": "",
    "isPremium": false,
    "reviewCount": 5,
    "rating": 4.0
  },
  {
    "name": "Holbeach Launderette",
    "address": "62 Church St, Holbeach, PE12 7LL (Est)",
    "city": "Boston",
    "lat": 52.8050,
    "lng": -0.0070,
    "features": ["Launderette", "Service Wash", "Rural Town Focus"],
    "openingHours": "Mon-Sat: 8:00am - 8:00pm, Sun: Closed",
    "website": "",
    "isPremium": false,
    "reviewCount": 3,
    "rating": 4.1
  },
  {
    "name": "Wainfleet Launderette",
    "address": "1 High St, Wainfleet, PE24 4BN (Est)",
    "city": "Boston",
    "lat": 53.0900,
    "lng": 0.3500,
    "features": ["Self-Service", "Small Town Focus"],
    "openingHours": "Mon-Sun: 7:30am - 6:00pm",
    "website": "",
    "isPremium": false,
    "reviewCount": 1,
    "rating": 3.5
  },
  {
    "name": "Kirton Launderette",
    "address": "47 London Rd, Kirton, PE20 1JB (Est)",
    "city": "Boston",
    "lat": 52.9060,
    "lng": 0.0500,
    "features": ["Self-Service", "Dry Cleaning Agent"],
    "openingHours": "Mon-Sat: 8:00am - 5:00pm, Sun: Closed",
    "website": "",
    "isPremium": false,
    "reviewCount": 2,
    "rating": 3.8
  },
  {
    "name": "Long Sutton Launderette",
    "address": "45 Bridge St, Long Sutton, PE12 9AJ (Est)",
    "city": "Boston",
    "lat": 52.7950,
    "lng": 0.0600,
    "features": ["Launderette", "Service Wash", "Town Centre"],
    "openingHours": "Mon-Fri: 9:00am - 5:00pm, Sat: 9:00am - 1:00pm, Sun: Closed",
    "website": "",
    "isPremium": false,
    "reviewCount": 4,
    "rating": 4.0
  }
]
