[
  {
    "name": "Polyclean Centre Laundrette",
    "address": "Unit 4, Workshops, Port Rd, Carlisle, CA2 7AJ",
    "city": "Carlisle",
    "lat": 54.8980,
    "lng": -2.9640,
    "features": ["Coin-Op", "Service Wash", "Ironing Service", "Duvet Cleaning", "Free Collection/Delivery"],
    "openingHours": "Mon-Sat: 9:00am - 4:00pm, Sun: 9:00am - 3:00pm (Coin-Op extends)",
    "website": "https://www.yell.com/biz/polyclean-centre-laundrette-carlisle-1940183/",
    "isPremium": true,
    "reviewCount": 8,
    "rating": 4.5
  },
  {
    "name": "Johnsons Cleaners (Greenmarket)",
    "address": "1 Green Market, Carlisle, CA3 8JE",
    "city": "Carlisle",
    "lat": 54.8920,
    "lng": -2.9360,
    "features": ["Dry Cleaning", "Repairs/Alterations", "Duvet Cleaning", "Central Location"],
    "openingHours": "Mon-Sat: 8:30am - 5:30pm, Sun: Closed",
    "website": "https://www.johnsoncleaners.com/",
    "isPremium": false,
    "reviewCount": 10,
    "rating": 4.6
  },
  {
    "name": "Love2Laundry Carlisle (Collection/Delivery)",
    "address": "Servicing CA postcodes (Virtual Listing)",
    "city": "Carlisle",
    "lat": 54.8900,
    "lng": -2.9400,
    "features": ["Collection/Delivery", "24hr Turnaround", "App Service", "Dry Cleaning"],
    "openingHours": "24/7 Booking",
    "website": "https://www.love2laundry.com/",
    "isPremium": true,
    "reviewCount": 15,
    "rating": 4.6
  },
  {
    "name": "Polly Clean Launderette (Harraby)",
    "address": "16 London Rd, Harraby, Carlisle, CA1 2EL (Est)",
    "city": "Carlisle",
    "lat": 54.8850,
    "lng": -2.9150,
    "features": ["Self-Service", "Service Wash", "Local Focus"],
    "openingHours": "Mon-Fri: 9:00am - 5:00pm, Sat: 9:00am - 1:00pm, Sun: Closed",
    "website": "",
    "isPremium": false,
    "reviewCount": 3,
    "rating": 4.0
  },
  {
    "name": "Stanwix Launderette",
    "address": "2 Stanwix Bank, Carlisle, CA3 9HU (Est)",
    "city": "Carlisle",
    "lat": 54.9040,
    "lng": -2.9380,
    "features": ["Coin-Op", "Duvet Cleaning"],
    "openingHours": "Mon-Sun: 8:00am - 8:00pm",
    "website": "",
    "isPremium": false,
    "reviewCount": 4,
    "rating": 3.8
  },
  {
    "name": "Longtown Launderette",
    "address": "1 Main St, Longtown, Carlisle, CA6 5SD (Est)",
    "city": "Carlisle",
    "lat": 55.0000,
    "lng": -3.0000,
    "features": ["Village Service", "Self-Service"],
    "openingHours": "Mon-Sun: 7:00am - 9:00pm",
    "website": "",
    "isPremium": false,
    "reviewCount": 2,
    "rating": 4.1
  },
  {
    "name": "Polyclean Brampton Launderette",
    "address": "4 Front St, Brampton, CA8 1NB (Est)",
    "city": "Carlisle",
    "lat": 54.9400,
    "lng": -2.7300,
    "features": ["Self-Service", "Service Wash", "Ironing"],
    "openingHours": "Mon-Sat: 9:00am - 5:00pm, Sun: Closed",
    "website": "",
    "isPremium": false,
    "reviewCount": 1,
    "rating": 4.5
  },
  {
    "name": "Revolution Laundry (Crosby Moor)",
    "address": "A689 Crosby Moor, Carlisle, CA6 4QX (Outdoor)",
    "city": "Carlisle",
    "lat": 54.9510,
    "lng": -2.9900,
    "features": ["24/7 Outdoor Machine", "Card Payment", "Large Capacity"],
    "openingHours": "24/7",
    "website": "https://stores.revolution-laundry.com/",
    "isPremium": false,
    "reviewCount": 3,
    "rating": 4.3
  },
  {
    "name": "Polyclean Centre (Port Road)",
    "address": "Port Road, Port Rd Industrial Estate, Carlisle, CA2 7AH (Est)",
    "city": "Carlisle",
    "lat": 54.8980,
    "lng": -2.9640,
    "features": ["Commercial Focus", "Coin-Op", "Free Collection"],
    "openingHours": "Mon-Fri: 9:00am - 5:00pm, Sat-Sun: Closed",
    "website": "",
    "isPremium": false,
    "reviewCount": 5,
    "rating": 4.4
  },
  {
    "name": "Denton Holme Launderette",
    "address": "32 Denton St, Carlisle, CA2 5DX (Est)",
    "city": "Carlisle",
    "lat": 54.8910,
    "lng": -2.9480,
    "features": ["Self-Service", "Local Service"],
    "openingHours": "Mon-Sun: 7:30am - 9:00pm",
    "website": "",
    "isPremium": false,
    "reviewCount": 2,
    "rating": 3.7
  },
  {
    "name": "St Michael's Services Launderette (24/7)",
    "address": "9 St Michael St, Dumfries, DG1 2QD",
    "city": "Dumfries",
    "lat": 55.0633,
    "lng": -3.6048,
    "features": ["24/7 Coin-Op", "Large Capacity", "Convenience Store Location"],
    "openingHours": "24/7",
    "website": "https://www.stmichaels-services.co.uk/",
    "isPremium": true,
    "reviewCount": 10,
    "rating": 4.8
  },
  {
    "name": "Timpson Dry Cleaning (Morrisons Dumfries)",
    "address": "Brooms Road, Dumfries, DG1 2SH",
    "city": "Dumfries",
    "lat": 55.0680,
    "lng": -3.6120,
    "features": ["Dry Cleaning", "Key Cutting", "Watch Repair", "Shoe Repair"],
    "openingHours": "Mon-Sat: 9:00am - 6:00pm, Sun: 10:00am - 4:00pm",
    "website": "https://www.timpson.co.uk/",
    "isPremium": false,
    "reviewCount": 7,
    "rating": 5.0
  },
  {
    "name": "Annan Road Dry Cleaners",
    "address": "26 Annan Rd, Dumfries, DG1 3AD",
    "city": "Dumfries",
    "lat": 55.0600,
    "lng": -3.6000,
    "features": ["Dry Cleaning", "Laundry Service", "Established Business"],
    "openingHours": "Mon-Fri: 9:00am - 5:00pm, Sat: 9:00am - 1:00pm, Sun: Closed",
    "website": "https://www.yell.com/biz/annan-road-dry-cleaners-dumfries-636575/",
    "isPremium": false,
    "reviewCount": 4,
    "rating": 4.0
  },
  {
    "name": "Lockerbie Launderette",
    "address": "32 High St, Lockerbie, DG11 2AD (Est)",
    "city": "Dumfries",
    "lat": 55.1200,
    "lng": -3.3550,
    "features": ["Town Service", "Self-Service", "Duvet Wash"],
    "openingHours": "Mon-Sun: 8:00am - 8:00pm",
    "website": "",
    "isPremium": false,
    "reviewCount": 2,
    "rating": 4.2
  },
  {
    "name": "Gretna Green Revolution Laundry",
    "address": "M74 Junction 22, Gretna Green, DG16 5HQ (Outdoor)",
    "city": "Dumfries",
    "lat": 55.0080,
    "lng": -3.0700,
    "features": ["24/7 Outdoor Machine", "Card Payment", "Motorway Services"],
    "openingHours": "24/7",
    "website": "https://stores.revolution-laundry.com/",
    "isPremium": false,
    "reviewCount": 5,
    "rating": 4.4
  },
  {
    "name": "Newton Stewart Launderette",
    "address": "20 Queen St, Newton Stewart, DG8 6JQ (Est)",
    "city": "Dumfries",
    "lat": 50.9580,
    "lng": -4.4750,
    "features": ["Local Service", "Service Wash", "Self-Service"],
    "openingHours": "Mon-Sat: 9:00am - 5:00pm, Sun: Closed",
    "website": "",
    "isPremium": false,
    "reviewCount": 1,
    "rating": 4.1
  },
  {
    "name": "Love2Laundry Dumfries (Virtual Listing)",
    "address": "Servicing DG postcodes (Virtual Listing)",
    "city": "Dumfries",
    "lat": 55.0650,
    "lng": -3.6100,
    "features": ["Collection/Delivery", "24hr Turnaround", "App Service", "Dry Cleaning"],
    "openingHours": "24/7 Booking",
    "website": "https://www.love2laundry.com/",
    "isPremium": true,
    "reviewCount": 12,
    "rating": 4.6
  },
  {
    "name": "Castle Douglas Laundrette",
    "address": "15 King St, Castle Douglas, DG7 1AA (Est)",
    "city": "Dumfries",
    "lat": 54.9350,
    "lng": -3.9350,
    "features": ["Town Centre", "Coin-Op", "Service Wash (Partial)"],
    "openingHours": "Mon-Sat: 8:30am - 6:00pm, Sun: Closed",
    "website": "",
    "isPremium": false,
    "reviewCount": 3,
    "rating": 4.0
  },
  {
    "name": "Moffat Laundry",
    "address": "High St, Moffat, DG10 9HQ (Est)",
    "city": "Dumfries",
    "lat": 55.3330,
    "lng": -3.4420,
    "features": ["Village Launderette", "Dry Cleaning Agent"],
    "openingHours": "Mon-Fri: 9:00am - 5:00pm, Sat-Sun: Closed",
    "website": "",
    "isPremium": false,
    "reviewCount": 1,
    "rating": 4.3
  },
  {
    "name": "Annan Launderette",
    "address": "28 High St, Annan, DG12 6AA (Est)",
    "city": "Dumfries",
    "lat": 54.9860,
    "lng": -3.2500,
    "features": ["Town Focus", "Self-Service", "Duvet Cleaning"],
    "openingHours": "Mon-Sun: 8:00am - 8:00pm",
    "website": "",
    "isPremium": false,
    "reviewCount": 2,
    "rating": 3.9
  },
  {
    "name": "Love2Laundry Kilmarnock (Collection/Delivery)",
    "address": "Servicing KA postcodes (Virtual Listing)",
    "city": "Kilmarnock",
    "lat": 55.6110,
    "lng": -4.5000,
    "features": ["Collection/Delivery", "24hr Turnaround", "App Service", "Dry Cleaning"],
    "openingHours": "24/7 Booking",
    "website": "https://www.love2laundry.com/",
    "isPremium": true,
    "reviewCount": 20,
    "rating": 4.6
  },
  {
    "name": "Timpson Dry Cleaning (Asda Kilmarnock)",
    "address": "10 Queens Drive, Kilmarnock, KA1 3XF",
    "city": "Kilmarnock",
    "lat": 55.6150,
    "lng": -4.4850,
    "features": ["Dry Cleaning", "Key Cutting", "Watch Repair", "Shoe Repair"],
    "openingHours": "Mon-Sat: 9:00am - 6:00pm, Sun: 11:00am - 5:00pm",
    "website": "https://www.timpson.co.uk/",
    "isPremium": false,
    "reviewCount": 12,
    "rating": 4.7
  },
  {
    "name": "Kilmarnock Dry Cleaners & Laundry Service",
    "address": "Unit 7-8, Block 14, Smiddy Court, Kilmarnock, KA1 4BY",
    "city": "Kilmarnock",
    "lat": 55.6070,
    "lng": -4.4980,
    "features": ["Service Wash", "Commercial Focus", "Free Local Delivery"],
    "openingHours": "Mon-Fri: 9:00am - 5:00pm, Sat: 9:00am - 12:30pm, Sun: Closed",
    "website": "https://www.yell.com/biz/kilmarnock-dry-cleaners-and-laundry-service-kilmarnock-10009479/",
    "isPremium": true,
    "reviewCount": 6,
    "rating": 4.8
  },
  {
    "name": "Iron Angel (Ironing Service)",
    "address": "18 Craighall Rd, Kilmarnock, KA3 6GN",
    "city": "Kilmarnock",
    "lat": 55.6050,
    "lng": -4.5200,
    "features": ["Ironing Service", "Free Pick up/Delivery", "24hr Turnaround"],
    "openingHours": "Mon-Fri: 9:00am - 5:00pm, Sat-Sun: Closed",
    "website": "https://www.yell.com/biz/iron-angel-kilmarnock-10476483/",
    "isPremium": false,
    "reviewCount": 5,
    "rating": 5.0
  },
  {
    "name": "Darley Laundry & Dry Cleaners (Troon)",
    "address": "149 Dundonald Rd, Troon, KA10 7AY",
    "city": "Kilmarnock",
    "lat": 55.5560,
    "lng": -4.6430,
    "features": ["Launderette", "Dry Cleaning", "Ironing"],
    "openingHours": "Mon-Sat: 9:00am - 5:00pm, Sun: Closed",
    "website": "https://www.yell.com/biz/darley-laundrette-dry-cleaners-troon-901458021/",
    "isPremium": false,
    "reviewCount": 3,
    "rating": 3.0
  },
  {
    "name": "Irvine Launderette",
    "address": "12 High St, Irvine, KA12 8AY (Est)",
    "city": "Kilmarnock",
    "lat": 55.6150,
    "lng": -4.6700,
    "features": ["Town Centre", "Self-Service", "Service Wash"],
    "openingHours": "Mon-Sun: 7:00am - 8:00pm",
    "website": "",
    "isPremium": false,
    "reviewCount": 4,
    "rating": 4.1
  },
  {
    "name": "Ayr Launderette",
    "address": "50 High St, Ayr, KA7 1RZ (Est)",
    "city": "Kilmarnock",
    "lat": 55.4590,
    "lng": -4.6290,
    "features": ["Self-Service", "Duvet Wash", "Attended (Partial)"],
    "openingHours": "Mon-Sat: 8:00am - 6:00pm, Sun: 9:00am - 5:00pm",
    "website": "",
    "isPremium": false,
    "reviewCount": 6,
    "rating": 4.2
  },
  {
    "name": "Saltcoats Laundrette",
    "address": "12 Vernon St, Saltcoats, KA21 5HE (Est)",
    "city": "Kilmarnock",
    "lat": 55.6370,
    "lng": -4.7600,
    "features": ["Coastal Focus", "Coin-Op", "Service Wash"],
    "openingHours": "Mon-Sun: 7:00am - 9:00pm",
    "website": "",
    "isPremium": false,
    "reviewCount": 2,
    "rating": 3.9
  },
  {
    "name": "Girvan Launderette",
    "address": "10 Bridge St, Girvan, KA26 9JR (Est)",
    "city": "Kilmarnock",
    "lat": 55.2420,
    "lng": -4.8460,
    "features": ["Small Town Service", "Tourist Focus", "Duvet Cleaning"],
    "openingHours": "Mon-Sat: 9:00am - 5:00pm, Sun: Closed",
    "website": "",
    "isPremium": false,
    "reviewCount": 1,
    "rating": 4.5
  },
  {
    "name": "Prestwick Launderette",
    "address": "5 The Cross, Prestwick, KA9 1AN (Est)",
    "city": "Kilmarnock",
    "lat": 55.4990,
    "lng": -4.6060,
    "features": ["Self-Service", "Attended (Partial)"],
    "openingHours": "Mon-Fri: 8:30am - 5:00pm, Sat: 8:30am - 1:00pm, Sun: Closed",
    "website": "",
    "isPremium": false,
    "reviewCount": 3,
    "rating": 4.0
  }
]
