[
  {
    "name": "BJ's Launderette",
    "address": "25 Norfolk St, Wisbech, PE13 2LE (Est)",
    "city": "Wisbech",
    "lat": 52.6640,
    "lng": 0.3870,
    "features": ["Self-Service", "Service Wash", "Ironing Service", "Duvet Cleaning"],
    "openingHours": "Mon-Sat: 9:00am - 5:00pm, Sun: 10:00am - 4:00pm",
    "website": "https://www.bjslaunderette.co.uk/",
    "isPremium": false,
    "reviewCount": 12,
    "rating": 4.5
  },
  {
    "name": "The Launderette (Horsefair)",
    "address": "Horsefair Shopping Centre, Wisbech, PE13 1AR (Est)",
    "city": "Wisbech",
    "lat": 52.6630,
    "lng": 0.3950,
    "features": ["24/7 Outdoor Machine (Revolution)", "Large Capacity", "Shopping Centre Location"],
    "openingHours": "24/7 (Machine), Centre Hours Vary (Attended)",
    "website": "https://www.horsefairshoppingcentre.co.uk/",
    "isPremium": false,
    "reviewCount": 8,
    "rating": 4.0
  },
  {
    "name": "A1 Launderette & Dry Cleaners",
    "address": "15 Lynn Rd, Wisbech, PE13 3AB (Est)",
    "city": "Wisbech",
    "lat": 52.6650,
    "lng": 0.3800,
    "features": ["Launderette", "Dry Cleaning Agent", "Repairs"],
    "openingHours": "Mon-Sat: 8:30am - 6:00pm, Sun: Closed",
    "website": "",
    "isPremium": true,
    "reviewCount": 5,
    "rating": 4.2
  },
  {
    "name": "Love2Laundry Wisbech (Collection/Delivery)",
    "address": "Servicing PE13 postcodes (Virtual Listing)",
    "city": "Wisbech",
    "lat": 52.6620,
    "lng": 0.3900,
    "features": ["Collection/Delivery", "24hr Turnaround", "Dry Cleaning", "App Service"],
    "openingHours": "24/7 Booking",
    "website": "https://www.love2laundry.com/",
    "isPremium": true,
    "reviewCount": 10,
    "rating": 4.4
  },
  {
    "name": "Walpole St Andrew Launderette",
    "address": "School Rd, Walpole St Andrew, Wisbech, PE14 7LH (Est)",
    "city": "Wisbech",
    "lat": 52.7500,
    "lng": 0.3150,
    "features": ["Local Service", "Self-Service", "Small Town Focus"],
    "openingHours": "Mon-Sat: 9:00am - 5:00pm, Sun: Closed",
    "website": "",
    "isPremium": false,
    "reviewCount": 3,
    "rating": 4.1
  },
  {
    "name": "B J Dry Cleaners & Launderette",
    "address": "11 Church Terrace, Wisbech, PE13 1AU (Est)",
    "city": "Wisbech",
    "lat": 52.6650,
    "lng": 0.4000,
    "features": ["Dry Cleaning", "Service Wash", "Attended"],
    "openingHours": "Mon-Fri: 9:00am - 5:30pm, Sat: 9:00am - 4:00pm, Sun: Closed",
    "website": "",
    "isPremium": true,
    "reviewCount": 4,
    "rating": 4.7
  },
  {
    "name": "Wisbech Laundry Centre",
    "address": "40 Nene Quay, Wisbech, PE13 1AZ (Est)",
    "city": "Wisbech",
    "lat": 52.6640,
    "lng": 0.3980,
    "features": ["Launderette", "Duvet Cleaning", "Commercial Laundry"],
    "openingHours": "Mon-Fri: 8:00am - 6:00pm, Sat: 8:00am - 4:00pm, Sun: Closed",
    "website": "",
    "isPremium": false,
    "reviewCount": 6,
    "rating": 4.3
  },
  {
    "name": "Wisbech Fenland Launderette",
    "address": "6 Lynn Rd, Wisbech, PE13 3AB (Est)",
    "city": "Wisbech",
    "lat": 52.6660,
    "lng": 0.3790,
    "features": ["Self-Service", "Coin-Op", "Local Service"],
    "openingHours": "Mon-Sun: 7:00am - 9:00pm",
    "website": "",
    "isPremium": false,
    "reviewCount": 5,
    "rating": 3.9
  },
  {
    "name": "Walsoken Laundry",
    "address": "2 Main Rd, Walsoken, Wisbech, PE13 3RA (Est)",
    "city": "Wisbech",
    "lat": 52.6700,
    "lng": 0.3600,
    "features": ["Launderette", "Service Wash", "Attended"],
    "openingHours": "Mon-Fri: 9:00am - 5:00pm, Sat: 9:00am - 1:00pm, Sun: Closed",
    "website": "",
    "isPremium": false,
    "reviewCount": 2,
    "rating": 4.0
  },
  {
    "name": "Elm Launderette",
    "address": "Main Rd, Elm, Wisbech, PE14 0AD (Est)",
    "city": "Wisbech",
    "lat": 52.6500,
    "lng": 0.3350,
    "features": ["Launderette", "Self-Service", "Village Focus"],
    "openingHours": "Mon-Sun: 7:00am - 8:00pm",
    "website": "",
    "isPremium": false,
    "reviewCount": 4,
    "rating": 3.8
  },
  {
    "name": "St. James Street Launderette",
    "address": "20 St. James St, King's Lynn, PE30 5DA",
    "city": "King's Lynn",
    "lat": 52.7530,
    "lng": 0.3960,
    "features": ["Self-Service (24/7)", "Long Hours", "Coin-Op"],
    "openingHours": "Mon-Sun: 7:00am - 10:00pm",
    "website": "https://www.mywashing.co.uk/",
    "isPremium": false,
    "reviewCount": 15,
    "rating": 4.4
  },
  {
    "name": "Valingers Road Launderette",
    "address": "2 Valingers Rd, King's Lynn, PE30 5HD",
    "city": "King's Lynn",
    "lat": 52.7520,
    "lng": 0.3950,
    "features": ["Self-Service (24/7)", "Long Hours", "Duvet Cleaning", "Tumble Drying"],
    "openingHours": "Mon-Sun: 8:00am - 10:00pm",
    "website": "",
    "isPremium": false,
    "reviewCount": 10,
    "rating": 4.3
  },
  {
    "name": "ClockWash Launderette & Dry Cleaning",
    "address": "20 & 21 St. Faith's Drive, Gaywood, King's Lynn, PE30 4PU",
    "city": "King's Lynn",
    "lat": 52.7590,
    "lng": 0.4180,
    "features": ["Self-Service", "Attended", "Dry Cleaning", "Free Collection/Delivery (PE30)"],
    "openingHours": "Self-Service: 6:00am - 9:00pm, Attended: Mon-Fri 8:30am - 5:30pm, Sat 8:30am - 2:00pm, Sun: Closed",
    "website": "https://clockwash.co.uk/",
    "isPremium": true,
    "reviewCount": 25,
    "rating": 4.6
  },
  {
    "name": "Timpson Dry Cleaning (Tesco Hardwick Rd)",
    "address": "Tesco Extra, Hardwick Rd, King's Lynn, PE30 4NA",
    "city": "King's Lynn",
    "lat": 52.7580,
    "lng": 0.3800,
    "features": ["Dry Cleaning", "Repairs/Alterations", "Key Cutting"],
    "openingHours": "Mon-Sat: 9:00am - 6:00pm, Sun: 10:00am - 4:00pm",
    "website": "https://www.timpson.co.uk/",
    "isPremium": true,
    "reviewCount": 5,
    "rating": 4.0
  },
  {
    "name": "The Dry Cleaning and Laundry Co.",
    "address": "105 High Street, King's Lynn, PE30 1DA",
    "city": "King's Lynn",
    "lat": 52.7540,
    "lng": 0.3970,
    "features": ["Dry Cleaning", "Wedding Dress Cleaning", "Commercial Laundry", "Loyalty Card"],
    "openingHours": "Mon-Fri: 9:00am - 4:00pm, Sat-Sun: Closed",
    "website": "https://www.thedrycleaninglaundryco.co.uk/",
    "isPremium": true,
    "reviewCount": 10,
    "rating": 4.7
  },
  {
    "name": "Wash.ME (Morrisons King's Lynn)",
    "address": "Morrisons, Edward Benefer Way, King's Lynn, PE30 1QB",
    "city": "King's Lynn",
    "lat": 52.7580,
    "lng": 0.3950,
    "features": ["24/7 Outdoor Machine (Revolution)", "Large Capacity", "Duvet Cleaning"],
    "openingHours": "24/7",
    "website": "https://stores.revolution-laundry.com/",
    "isPremium": false,
    "reviewCount": 15,
    "rating": 3.9
  },
  {
    "name": "West Lynn Launderette",
    "address": "3 Ferry St, West Lynn, King's Lynn, PE34 3AZ (Est)",
    "city": "King's Lynn",
    "lat": 52.7560,
    "lng": 0.3850,
    "features": ["Launderette", "Self-Service", "Local Focus"],
    "openingHours": "Mon-Sun: 8:00am - 8:00pm",
    "website": "",
    "isPremium": false,
    "reviewCount": 4,
    "rating": 4.1
  },
  {
    "name": "Gaywood Launderette",
    "address": "12 Gaywood Rd, King's Lynn, PE30 4LY (Est)",
    "city": "King's Lynn",
    "lat": 52.7540,
    "lng": 0.4080,
    "features": ["Coin-Op", "Service Wash", "Attended (Partial)"],
    "openingHours": "Mon-Sat: 8:30am - 6:00pm, Sun: Closed",
    "website": "",
    "isPremium": false,
    "reviewCount": 6,
    "rating": 4.2
  },
  {
    "name": "Dersingham Launderette",
    "address": "7 Post Office Rd, Dersingham, King's Lynn, PE31 6HQ (Est)",
    "city": "King's Lynn",
    "lat": 52.8360,
    "lng": 0.4700,
    "features": ["Launderette", "Service Wash", "Duvet Cleaning", "Village Location"],
    "openingHours": "Mon-Sat: 9:00am - 5:00pm, Sun: Closed",
    "website": "",
    "isPremium": false,
    "reviewCount": 3,
    "rating": 4.5
  },
  {
    "name": "Lynn Dry Cleaners & Laundry",
    "address": "119 High Street, King's Lynn, PE30 1AA (Est)",
    "city": "King's Lynn",
    "lat": 52.7540,
    "lng": 0.3950,
    "features": ["Dry Cleaning", "Ironing Service", "Tailoring"],
    "openingHours": "Mon-Fri: 9:00am - 5:30pm, Sat: 9:00am - 4:00pm, Sun: Closed",
    "website": "",
    "isPremium": true,
    "reviewCount": 4,
    "rating": 4.7
  },
  {
    "name": "Tops Launderette",
    "address": "120 High Street, March, PE15 9LP",
    "city": "March",
    "lat": 52.5530,
    "lng": 0.0820,
    "features": ["Launderette", "Dry Cleaning", "Town Centre"],
    "openingHours": "Mon-Sat: 8:30am - 5:30pm, Sun: Closed",
    "website": "",
    "isPremium": false,
    "reviewCount": 10,
    "rating": 4.3
  },
  {
    "name": "March Launderette & Dry Cleaners",
    "address": "25 Station Road, March, PE15 8LB (Est)",
    "city": "March",
    "lat": 52.5560,
    "lng": 0.0850,
    "features": ["Self-Service", "Service Wash", "Duvet Cleaning", "Attended (Partial)"],
    "openingHours": "Mon-Sat: 8:00am - 6:00pm, Sun: Closed",
    "website": "",
    "isPremium": false,
    "reviewCount": 8,
    "rating": 4.1
  },
  {
    "name": "Laytons Dry Cleaners (March)",
    "address": "10 Broad St, March, PE15 8QE (Est)",
    "city": "March",
    "lat": 52.5520,
    "lng": 0.0760,
    "features": ["Dry Cleaning (Established 1935)", "Laundry Service", "Repairs/Alterations"],
    "openingHours": "Mon-Fri: 9:00am - 5:00pm, Sat: 9:00am - 1:00pm, Sun: Closed",
    "website": "http://www.laytonsdrycleaners.co.uk/",
    "isPremium": true,
    "reviewCount": 5,
    "rating": 4.7
  },
  {
    "name": "Love2Laundry March (Collection/Delivery)",
    "address": "Servicing PE15 postcodes (Virtual Listing)",
    "city": "March",
    "lat": 52.5540,
    "lng": 0.0780,
    "features": ["Collection/Delivery", "24hr Turnaround", "Dry Cleaning", "App Service"],
    "openingHours": "24/7 Booking",
    "website": "https://www.love2laundry.com/",
    "isPremium": true,
    "reviewCount": 10,
    "rating": 4.5
  },
  {
    "name": "Whittlesey Launderette",
    "address": "3 Broad St, Whittlesey, March, PE7 1HA (Est)",
    "city": "March",
    "lat": 52.5600,
    "lng": 0.1380,
    "features": ["Self-Service", "Coin-Op", "Local Service"],
    "openingHours": "Mon-Sun: 7:00am - 8:00pm",
    "website": "",
    "isPremium": false,
    "reviewCount": 6,
    "rating": 4.2
  },
  {
    "name": "Chatteris Launderette",
    "address": "10 High St, Chatteris, March, PE16 6BE (Est)",
    "city": "March",
    "lat": 52.4570,
    "lng": 0.0530,
    "features": ["Launderette", "Service Wash", "Attended (Partial)"],
    "openingHours": "Mon-Sat: 8:30am - 5:00pm, Sun: Closed",
    "website": "",
    "isPremium": false,
    "reviewCount": 4,
    "rating": 4.0
  },
  {
    "name": "Doddington Launderette",
    "address": "Main St, Doddington, March, PE15 0SP (Est)",
    "city": "March",
    "lat": 52.5180,
    "lng": 0.1000,
    "features": ["Self-Service", "Village Focus", "Drying Facilities"],
    "openingHours": "Mon-Sun: 7:30am - 8:30pm",
    "website": "",
    "isPremium": false,
    "reviewCount": 3,
    "rating": 3.9
  },
  {
    "name": "Benwick Launderette",
    "address": "High St, Benwick, March, PE15 0AA (Est)",
    "city": "March",
    "lat": 52.5120,
    "lng": 0.0500,
    "features": ["Launderette", "Coin-Op", "Local Service"],
    "openingHours": "Mon-Sun: 7:00am - 8:00pm",
    "website": "",
    "isPremium": false,
    "reviewCount": 2,
    "rating": 3.8
  },
  {
    "name": "Wisbech Road Launderette",
    "address": "4 Wisbech Rd, March, PE15 8EF (Est)",
    "city": "March",
    "lat": 52.5540,
    "lng": 0.0800,
    "features": ["Self-Service", "Service Wash", "Attended"],
    "openingHours": "Mon-Sat: 9:00am - 6:00pm, Sun: Closed",
    "website": "",
    "isPremium": false,
    "reviewCount": 5,
    "rating": 4.4
  },
  {
    "name": "My Washing Launderette (March)",
    "address": "2 High St, March, PE15 9LB (Est)",
    "city": "March",
    "lat": 52.5530,
    "lng": 0.0780,
    "features": ["Self-Service (Coin-Op)", "Long Hours", "Duvet Cleaning"],
    "openingHours": "Mon-Sun: 8:00am - 8:00pm",
    "website": "https://www.mywashing.co.uk/",
    "isPremium": false,
    "reviewCount": 7,
    "rating": 4.1
  }
]
