[
  {
    "name": "Western Road Launderette & Dry Cleaners",
    "address": "7 Western Road, Hove, BN3 1AE",
    "city": "Brighton",
    "lat": 50.8250,
    "lng": -0.1550,
    "features": ["Self-Service", "Staffed", "Dry Cleaning", "Repairs/Alterations", "Free WiFi"],
    "openingHours": "Mon-Sun: 8:00am - 8:00pm",
    "website": "https://westernroadlaunderette.com/",
    "isPremium": true,
    "reviewCount": 35,
    "rating": 4.7
  },
  {
    "name": "St George's Laundry Services",
    "address": "86-87 Station Rd, Portslade, Brighton, BN41 1DF",
    "city": "Brighton",
    "lat": 50.8350,
    "lng": -0.2200,
    "features": ["Service Wash", "Collection/Delivery", "Dry Cleaning", "Ironing", "Duvet Cleaning"],
    "openingHours": "Mon-Fri: 9:00am - 5:00pm, Sat-Sun: Closed (Self-service available)",
    "website": "https://www.sglaundry.co.uk/",
    "isPremium": true,
    "reviewCount": 45,
    "rating": 4.8
  },
  {
    "name": "St James's Laundry Centre",
    "address": "53 St James's Street, Brighton, BN2 1QG",
    "city": "Brighton",
    "lat": 50.8210,
    "lng": -0.1330,
    "features": ["Self-Service Coin-Op", "Cheapest Wash in Town", "Long Hours", "Open 7 Days"],
    "openingHours": "Mon-Sun: 7:30am - 9:00pm (Last wash 7:30pm)",
    "website": "https://www.laundrycentre.com/",
    "isPremium": false,
    "reviewCount": 20,
    "rating": 4.5
  },
  {
    "name": "Blatchington Road Laundrette",
    "address": "153 Blatchington Rd, Hove, BN3 3YJ",
    "city": "Brighton",
    "lat": 50.8300,
    "lng": -0.1700,
    "features": ["Service Washes", "Ironing", "Duvet Cleaning", "Free Same-Day Collection/Delivery"],
    "openingHours": "Mon-Sat: 8:00am - 7:00pm, Sun: Closed",
    "website": "https://www.blatchingtonrdlaunderette.co.uk/",
    "isPremium": true,
    "reviewCount": 25,
    "rating": 4.7
  },
  {
    "name": "Soap Box Launderette",
    "address": "129 Queens Park Rd, Brighton, BN2 0GR",
    "city": "Brighton",
    "lat": 50.8250,
    "lng": -0.1250,
    "features": ["Self-Service", "Washing & Ironing Service", "Duvet Cleaning", "Dry Cleaning"],
    "openingHours": "Mon-Fri: 9:00am - 6:00pm, Sat: 9:00am - 5:00pm, Sun: Closed",
    "website": "https://www.soapboxbrighton.co.uk/",
    "isPremium": false,
    "reviewCount": 15,
    "rating": 4.4
  },
  {
    "name": "Jons Launderette (Hove)",
    "address": "90 Goldstone Villas, Hove, BN3 3RQ",
    "city": "Brighton",
    "lat": 50.8320,
    "lng": -0.1650,
    "features": ["Self Service 7 Days", "Dry Cleaning", "Duvet Cleaning", "40+ Years Experience"],
    "openingHours": "Mon-Sun: 8:00am - 8:00pm",
    "website": "http://www.jonslaunderette.co.uk/",
    "isPremium": false,
    "reviewCount": 10,
    "rating": 4.3
  },
  {
    "name": "Love2Laundry Brighton (Collection/Delivery)",
    "address": "Servicing BN postcodes (Virtual Listing)",
    "city": "Brighton",
    "lat": 50.8200,
    "lng": -0.1400,
    "features": ["Collection/Delivery", "24hr Turnaround", "App Service", "Dry Cleaning"],
    "openingHours": "24/7 Booking",
    "website": "https://www.love2laundry.com/",
    "isPremium": true,
    "reviewCount": 20,
    "rating": 4.6
  },
  {
    "name": "Powis Road Laundromat",
    "address": "52 Powis Rd, Brighton, BN3 1HH",
    "city": "Brighton",
    "lat": 50.8290,
    "lng": -0.1540,
    "features": ["Family Run", "Eco-Friendly Machines", "Self-Service"],
    "openingHours": "Mon-Sun: 7:00am - 9:00pm",
    "website": "https://www.laundromat.org.uk/",
    "isPremium": false,
    "reviewCount": 8,
    "rating": 4.2
  },
  {
    "name": "Kemptown Launderette",
    "address": "15 Bristol Gardens, Brighton, BN2 5SN (Est)",
    "city": "Brighton",
    "lat": 50.8170,
    "lng": -0.1180,
    "features": ["Self-Service", "Service Wash", "Kemptown Area"],
    "openingHours": "Mon-Sat: 8:00am - 6:00pm, Sun: Closed",
    "website": "",
    "isPremium": false,
    "reviewCount": 6,
    "rating": 4.0
  },
  {
    "name": "Worthing Launderette (Agent)",
    "address": "129 Montague St, Worthing, BN11 3BP (Est)",
    "city": "Brighton",
    "lat": 50.8140,
    "lng": -0.3750,
    "features": ["Dry Cleaning Drop-Off", "Laundry Agent", "Town Centre"],
    "openingHours": "Mon-Sat: 9:00am - 5:00pm, Sun: Closed",
    "website": "",
    "isPremium": true,
    "reviewCount": 4,
    "rating": 4.1
  },
  {
    "name": "Boscombe Laundry Service & Launderette",
    "address": "479 Christchurch Road, Bournemouth, BH1 4AD",
    "city": "Bournemouth",
    "lat": 50.7310,
    "lng": -1.8400,
    "features": ["Self-Service (7am-9pm)", "Full Service Wash", "Ironing", "Collection/Delivery"],
    "openingHours": "Mon-Sun: 7:00am - 9:00pm",
    "website": "https://www.boscombelaunderette.co.uk/",
    "isPremium": true,
    "reviewCount": 25,
    "rating": 4.7
  },
  {
    "name": "The Laundrette (Bournemouth Central)",
    "address": "225 Old Christchurch Rd, Bournemouth, BH1 1JZ",
    "city": "Bournemouth",
    "lat": 50.7220,
    "lng": -1.8710,
    "features": ["Self-Service", "High Street Location", "Clean & Maintained", "Coin-Op"],
    "openingHours": "Mon-Sun: 7:30am - 7:30pm (Last wash 7:00pm)",
    "website": "http://nichelocal.co.uk/services/Bournemouth/Laundrette/Laundrette-Bournemouth.html",
    "isPremium": false,
    "reviewCount": 15,
    "rating": 4.4
  },
  {
    "name": "Queens Park Launderette",
    "address": "282 Charminster Rd, Bournemouth, BH8 9RT",
    "city": "Bournemouth",
    "lat": 50.7300,
    "lng": -1.8600,
    "features": ["Staffed", "Contract Laundry", "Linen Hire", "Student Discounts"],
    "openingHours": "Mon-Fri: 9:00am - 5:30pm, Sat: 9:00am - 12:00pm, Sun: Closed",
    "website": "https://queensparklaunderette.co.uk/",
    "isPremium": true,
    "reviewCount": 10,
    "rating": 4.6
  },
  {
    "name": "Elite Laundry & Dry Cleaners",
    "address": "290 Wallisdown Rd, Bournemouth, BH11 8PN",
    "city": "Bournemouth",
    "lat": 50.7370,
    "lng": -1.9050,
    "features": ["Self-Service", "Dry Cleaning", "Free Collection/Delivery", "Duvet Cleaning"],
    "openingHours": "Mon-Sun: 7:30am - 7:30pm (Self-Service)",
    "website": "https://www.elite-laundry.co.uk/",
    "isPremium": true,
    "reviewCount": 18,
    "rating": 4.5
  },
  {
    "name": "The Laundrette (Winton)",
    "address": "304 Wimborne Rd, Bournemouth, BH9 2HN (Est)",
    "city": "Bournemouth",
    "lat": 50.7420,
    "lng": -1.8790,
    "features": ["Self-Service", "Extended Hours", "Free WiFi", "Parking Available"],
    "openingHours": "Mon-Sun: 7:00am - 9:00pm",
    "website": "https://www.thelaunderettebournemouth.co.uk/",
    "isPremium": false,
    "reviewCount": 12,
    "rating": 4.3
  },
  {
    "name": "Love2Laundry Bournemouth (Collection/Delivery)",
    "address": "Servicing BH postcodes (Virtual Listing)",
    "city": "Bournemouth",
    "lat": 50.7200,
    "lng": -1.8800,
    "features": ["Collection/Delivery", "24hr Turnaround", "App Service", "Dry Cleaning"],
    "openingHours": "24/7 Booking",
    "website": "https://www.love2laundry.com/",
    "isPremium": true,
    "reviewCount": 16,
    "rating": 4.6
  },
  {
    "name": "Tuckton Launderette",
    "address": "143 Tuckton Rd, Bournemouth, BH6 3JZ",
    "city": "Bournemouth",
    "lat": 50.7250,
    "lng": -1.8000,
    "features": ["Self-Service", "Launderette", "Early Opener"],
    "openingHours": "Mon-Sun: 7:00am - 7:00pm",
    "website": "",
    "isPremium": false,
    "reviewCount": 5,
    "rating": 5.0
  },
  {
    "name": "Christchurch Launderette",
    "address": "19 Bridge St, Christchurch, BH23 1AJ (Est)",
    "city": "Bournemouth",
    "lat": 50.7300,
    "lng": -1.7770,
    "features": ["Launderette", "Coin-Op", "Service Wash"],
    "openingHours": "Mon-Sat: 8:00am - 6:00pm, Sun: Closed",
    "website": "",
    "isPremium": false,
    "reviewCount": 6,
    "rating": 4.1
  },
  {
    "name": "Poole Launderette",
    "address": "325 Ashley Rd, Poole, BH14 0AP (Est)",
    "city": "Bournemouth",
    "lat": 50.7180,
    "lng": -1.9400,
    "features": ["Self-Service", "Duvet Cleaning", "Poole Area"],
    "openingHours": "Mon-Sun: 7:30am - 8:00pm",
    "website": "",
    "isPremium": false,
    "reviewCount": 7,
    "rating": 4.2
  },
  {
    "name": "Ferndown Launderette",
    "address": "100 Victoria Rd, Ferndown, BH22 9JE (Est)",
    "city": "Bournemouth",
    "lat": 50.8120,
    "lng": -1.8990,
    "features": ["Self-Service", "Service Wash", "Rural Focus"],
    "openingHours": "Mon-Sat: 8:00am - 5:00pm, Sun: Closed",
    "website": "",
    "isPremium": false,
    "reviewCount": 3,
    "rating": 3.8
  },
  {
    "name": "Novawash Laundry & Dry Cleaning",
    "address": "5 Stockbridge Place, Stockbridge Rd, Chichester, PO19 8QH",
    "city": "Chichester",
    "lat": 50.8300,
    "lng": -0.7930,
    "features": ["FREE Collection/Delivery", "Dry Cleaning", "Ironing", "Duvet Cleaning", "Longest Established"],
    "openingHours": "Mon-Sat: 8:00am - 6:00pm, Sun: Closed",
    "website": "https://novawash.co.uk/",
    "isPremium": true,
    "reviewCount": 15,
    "rating": 5.0
  },
  {
    "name": "The Little Launderette (Selsey)",
    "address": "132 High St, Selsey, PO20 0QE",
    "city": "Chichester",
    "lat": 50.7330,
    "lng": -0.7950,
    "features": ["Self-Service", "Service Wash", "Ironing Service", "Coastal Location"],
    "openingHours": "Mon-Sun: 9:00am - 7:00pm",
    "website": "https://www.thelittlelaunderette.com/selsey/",
    "isPremium": false,
    "reviewCount": 8,
    "rating": 4.6
  },
  {
    "name": "Sussex Cleaners (Chichester)",
    "address": "32 The Hornet, Chichester, PO19 7JG",
    "city": "Chichester",
    "lat": 50.8350,
    "lng": -0.7760,
    "features": ["Dry Cleaning", "Duvet Cleaning", "50+ Years Established", "Tailoring Agent"],
    "openingHours": "Mon-Sat: 8:30am - 5:30pm, Sun: Closed",
    "website": "https://www.sussex-cleaners.com/",
    "isPremium": true,
    "reviewCount": 10,
    "rating": 4.5
  },
  {
    "name": "Love2Laundry Chichester (Collection/Delivery)",
    "address": "Servicing PO postcodes (Virtual Listing)",
    "city": "Chichester",
    "lat": 50.8300,
    "lng": -0.7800,
    "features": ["Collection/Delivery", "24hr Turnaround", "App Service", "Dry Cleaning"],
    "openingHours": "24/7 Booking",
    "website": "https://www.love2laundry.com/",
    "isPremium": true,
    "reviewCount": 10,
    "rating": 4.6
  },
  {
    "name": "Felpham Launderette",
    "address": "3 Grassmere Parade, Felpham Rd, Bognor Regis, PO22 7NT",
    "city": "Chichester",
    "lat": 50.7880,
    "lng": -0.6650,
    "features": ["Self-Service", "Service Wash", "Under New Management", "Early Opener"],
    "openingHours": "Mon-Sun: 7:00am - 8:00pm",
    "website": "https://www.yell.com/biz/felpham-launderette-bognor-regis-10023297/",
    "isPremium": false,
    "reviewCount": 10,
    "rating": 4.8
  },
  {
    "name": "Nyewood Launderette",
    "address": "23 Nyewood Lane, Bognor Regis, PO21 2QB (Est)",
    "city": "Chichester",
    "lat": 50.7850,
    "lng": -0.6800,
    "features": ["Launderette", "Self-Service", "Drying Facilities"],
    "openingHours": "Mon-Sat: 8:00am - 6:00pm, Sun: Closed",
    "website": "",
    "isPremium": false,
    "reviewCount": 4,
    "rating": 4.1
  },
  {
    "name": "London Road Launderette (Bognor)",
    "address": "53 London Rd, Bognor Regis, PO21 1DG (Est)",
    "city": "Chichester",
    "lat": 50.7880,
    "lng": -0.6750,
    "features": ["Self-Service", "Coin-Op", "Town Centre"],
    "openingHours": "Mon-Sun: 7:00am - 9:00pm",
    "website": "",
    "isPremium": false,
    "reviewCount": 5,
    "rating": 4.0
  },
  {
    "name": "Claremont Launderette",
    "address": "22 West St, Bognor Regis, PO21 1UE (Est)",
    "city": "Chichester",
    "lat": 50.7880,
    "lng": -0.6680,
    "features": ["Self-Service", "Service Wash", "Dry Cleaning Agent"],
    "openingHours": "Mon-Sun: 7:00am - 7:00pm",
    "website": "",
    "isPremium": false,
    "reviewCount": 6,
    "rating": 4.2
  },
  {
    "name": "Chichester Tailoring (Dry Cleaning Agent)",
    "address": "6a North St, Chichester, PO19 1LB",
    "city": "Chichester",
    "lat": 50.8370,
    "lng": -0.7760,
    "features": ["Tailoring/Alterations", "Dry Cleaning Drop-Off", "Fast Turnaround"],
    "openingHours": "Mon-Sat: 9:00am - 5:30pm, Sun: Closed",
    "website": "https://www.yell.com/biz/chichester-tailoring-chichester-10332304/",
    "isPremium": true,
    "reviewCount": 5,
    "rating": 4.5
  },
  {
    "name": "Rustington Washeteria",
    "address": "18 Worthing Rd, Littlehampton, BN16 3JX (Est)",
    "city": "Chichester",
    "lat": 50.8040,
    "lng": -0.4900,
    "features": ["Self-Service", "Card Payment", "Modern Machines"],
    "openingHours": "Mon-Sun: 7:00am - 8:00pm",
    "website": "",
    "isPremium": false,
    "reviewCount": 4,
    "rating": 4.0
  }
]
