[
  {
    "name": "Springbank Launderette",
    "address": "121 Springbank, Hull, HU3 1BH",
    "city": "Hull",
    "lat": 53.7500,
    "lng": -0.3470,
    "features": ["Self-Service", "Service Wash", "Dry Cleaning", "Long Established"],
    "openingHours": "Mon-Sat: 8:30am - 6:30pm, Sun: Closed",
    "website": "http://launderetteshull.co.uk/",
    "isPremium": false,
    "reviewCount": 15,
    "rating": 4.5
  },
  {
    "name": "Newland Avenue Launderette",
    "address": "152 Newland Avenue, Hull, HU5 2ND",
    "city": "Hull",
    "lat": 53.7560,
    "lng": -0.3600,
    "features": ["Self-Service", "Student Area", "Long Hours"],
    "openingHours": "Mon-Sun: 7:00am - 9:00pm",
    "website": "http://launderetteshull.co.uk/",
    "isPremium": false,
    "reviewCount": 10,
    "rating": 4.3
  },
  {
    "name": "ZIP Dry Cleaners (Anlaby Road)",
    "address": "486 Anlaby Road, Hull, HU3 6TA",
    "city": "Hull",
    "lat": 53.7380,
    "lng": -0.3850,
    "features": ["Dry Cleaning", "Collection/Delivery", "Same-Day Service", "Wedding Dress Cleaning"],
    "openingHours": "Mon-Fri: 9:00am - 5:00pm, Sat: 9:00am - 4:00pm, Sun: Closed",
    "website": "https://zipdrycleaners.co.uk/",
    "isPremium": true,
    "reviewCount": 8,
    "rating": 4.7
  },
  {
    "name": "Love2Laundry Hull (Collection/Delivery)",
    "address": "Servicing HU postcodes (Virtual Listing)",
    "city": "Hull",
    "lat": 53.7400,
    "lng": -0.3300,
    "features": ["Collection/Delivery", "24hr Turnaround", "App Service", "Dry Cleaning"],
    "openingHours": "24/7 Booking",
    "website": "https://www.love2laundry.com/",
    "isPremium": true,
    "reviewCount": 12,
    "rating": 4.6
  },
  {
    "name": "Queens Road Launderette",
    "address": "3 Queens Road, Hull, HU5 2PY",
    "city": "Hull",
    "lat": 53.7650,
    "lng": -0.3420,
    "features": ["Self-Service", "Coin-Op", "Duvet Machines"],
    "openingHours": "Mon-Sun: 7:00am - 8:00pm",
    "website": "http://launderetteshull.co.uk/",
    "isPremium": false,
    "reviewCount": 5,
    "rating": 4.1
  },
  {
    "name": "Rex Launderette (New Bridge Road)",
    "address": "46 New Bridge Road, Hull, HU9 2AB",
    "city": "Hull",
    "lat": 53.7500,
    "lng": -0.3000,
    "features": ["Self-Service", "Service Wash (Partial)", "East Hull Focus"],
    "openingHours": "Mon-Sat: 8:00am - 5:00pm, Sun: Closed",
    "website": "http://launderetteshull.co.uk/",
    "isPremium": false,
    "reviewCount": 4,
    "rating": 3.8
  },
  {
    "name": "Boothferry Launderette",
    "address": "HU4 Area (Exact address N/A), Hull, HU4 7XU (Est)",
    "city": "Hull",
    "lat": 53.7300,
    "lng": -0.4200,
    "features": ["Self-Service", "West Hull Focus"],
    "openingHours": "Mon-Sun: 7:30am - 8:00pm",
    "website": "http://launderetteshull.co.uk/",
    "isPremium": false,
    "reviewCount": 3,
    "rating": 3.5
  },
  {
    "name": "Johnsons Cleaners (Clough Road)",
    "address": "66 Clough Road, Hull, HU5 1SR",
    "city": "Hull",
    "lat": 53.7660,
    "lng": -0.3650,
    "features": ["Dry Cleaning", "In-Store Agent", "Duvet Cleaning"],
    "openingHours": "Mon-Fri: 9:00am - 6:00pm, Sat: 9:00am - 5:00pm, Sun: Closed",
    "website": "https://www.johnsoncleaners.com/",
    "isPremium": true,
    "reviewCount": 5,
    "rating": 4.4
  },
  {
    "name": "Wash ME Launderette (Sutton)",
    "address": "Robson Way, Hull, HU8 9XL",
    "city": "Hull",
    "lat": 53.7600,
    "lng": -0.2700,
    "features": ["24/7 Outdoor Machine", "Large Capacity", "Card Payment"],
    "openingHours": "24/7",
    "website": "https://stores.revolution-laundry.com/",
    "isPremium": false,
    "reviewCount": 3,
    "rating": 4.0
  },
  {
    "name": "Beverley Road Launderette",
    "address": "213 Beverley Road, Hull, HU3 1AF (Est)",
    "city": "Hull",
    "lat": 53.7500,
    "lng": -0.3550,
    "features": ["Self-Service", "Coin-Op", "City Centre Access"],
    "openingHours": "Mon-Sun: 7:00am - 9:00pm",
    "website": "",
    "isPremium": false,
    "reviewCount": 6,
    "rating": 4.1
  },
  {
    "name": "Haxby Road Laundrette & Dry Cleaning",
    "address": "3 Haxby Road, York, YO31 8QA",
    "city": "York",
    "lat": 53.9680,
    "lng": -1.0800,
    "features": ["Service Wash", "Pressing Service", "Dry Cleaning", "Commercial Service"],
    "openingHours": "Mon-Fri: 10:00am - 4:00pm, Sat: 9:00am - 5:00pm, Sun: 9:00am - 4:00pm",
    "website": "https://www.haxbyroadlaundrette.com/",
    "isPremium": true,
    "reviewCount": 15,
    "rating": 4.7
  },
  {
    "name": "Bendix Launderette & Dry Cleaners (Hull Road)",
    "address": "Unit 7 Matmer House, Hull Rd, York, YO10 3JW",
    "city": "York",
    "lat": 53.9570,
    "lng": -1.0250,
    "features": ["Self-Service", "Dry Cleaning", "Service Wash", "Duvet Cleaning"],
    "openingHours": "Mon-Wed, Fri: 9:00am - 5:30pm, Thu: 9:00am - 2:00pm, Sat: 9:00am - 5:30pm, Sun: 10:00am - 3:30pm",
    "website": "https://www.yell.com/biz/bendix-launderette-and-dry-cleaners-york-1093635/",
    "isPremium": false,
    "reviewCount": 25,
    "rating": 3.5
  },
  {
    "name": "Monarch Laundry Ltd (Clifton Moor)",
    "address": "Unit 9-10 Concorde Park, Amy Johnson Way, York, YO30 4WT",
    "city": "York",
    "lat": 53.9800,
    "lng": -1.1070,
    "features": ["Commercial Laundry", "Dry Cleaning", "High Capacity", "Fast Turnaround"],
    "openingHours": "Mon-Fri: 8:00am - 5:30pm, Sat-Sun: Closed",
    "website": "https://www.monarchlaundry.net/",
    "isPremium": true,
    "reviewCount": 10,
    "rating": 4.5
  },
  {
    "name": "Love2Laundry York (Collection/Delivery)",
    "address": "Servicing YO postcodes (Virtual Listing)",
    "city": "York",
    "lat": 53.9500,
    "lng": -1.0800,
    "features": ["Collection/Delivery", "24hr Turnaround", "App Service", "Dry Cleaning"],
    "openingHours": "24/7 Booking",
    "website": "https://www.love2laundry.com/",
    "isPremium": true,
    "reviewCount": 15,
    "rating": 4.6
  },
  {
    "name": "The Washing Well (Boroughbridge Road)",
    "address": "16 Boroughbridge Road, York, YO26 5RU",
    "city": "York",
    "lat": 53.9640,
    "lng": -1.1150,
    "features": ["Commercial Focus", "Service Wash", "Duvet Cleaning"],
    "openingHours": "Mon-Sun: 9:00am - 5:00pm",
    "website": "http://www.the-washing-well.co.uk/",
    "isPremium": false,
    "reviewCount": 8,
    "rating": 4.2
  },
  {
    "name": "Meadowcrofts Laundry",
    "address": "127 Bishopthorpe Rd, York, YO23 1NX (Est)",
    "city": "York",
    "lat": 53.9480,
    "lng": -1.0850,
    "features": ["Domestic/Commercial", "Long Established (1997)", "Friendly Staff"],
    "openingHours": "Mon-Sat: 9:00am - 5:30pm, Sun: Closed",
    "website": "https://meadowcrofts.co.uk/",
    "isPremium": false,
    "reviewCount": 5,
    "rating": 4.4
  },
  {
    "name": "The Launderette (Heslington)",
    "address": "1 Heslington Ln, York, YO10 4HJ (Est)",
    "city": "York",
    "lat": 53.9460,
    "lng": -1.0700,
    "features": ["Self-Service", "University Area", "Coin-Op"],
    "openingHours": "Mon-Sun: 7:00am - 9:00pm",
    "website": "",
    "isPremium": false,
    "reviewCount": 3,
    "rating": 3.9
  },
  {
    "name": "Acomb Laundrette",
    "address": "3 York Rd, Acomb, York, YO24 4LN (Est)",
    "city": "York",
    "lat": 53.9570,
    "lng": -1.1350,
    "features": ["Launderette", "Duvet Cleaning", "Town Focus"],
    "openingHours": "Mon-Sat: 8:30am - 6:00pm, Sun: Closed",
    "website": "",
    "isPremium": false,
    "reviewCount": 4,
    "rating": 4.1
  },
  {
    "name": "York City Centre Cleaners",
    "address": "5 Lord Mayors Walk, York, YO31 7HB (Est)",
    "city": "York",
    "lat": 53.9620,
    "lng": -1.0780,
    "features": ["Dry Cleaning", "Quick Service", "Central Location"],
    "openingHours": "Mon-Sat: 9:00am - 5:00pm, Sun: Closed",
    "website": "https://www.yell.com/biz/meadowcrofts-dry-cleaners-york-9350438/",
    "isPremium": true,
    "reviewCount": 5,
    "rating": 5.0
  },
  {
    "name": "The Ironing Co (York)",
    "address": "62 Linton St, York, YO26 4SA",
    "city": "York",
    "lat": 53.9680,
    "lng": -1.1300,
    "features": ["Ironing Service", "Laundry Service", "Collection/Delivery"],
    "openingHours": "Mon-Fri: 9:00am - 6:00pm, Sat-Sun: Closed",
    "website": "https://www.theyorkironingco.co.uk/",
    "isPremium": false,
    "reviewCount": 10,
    "rating": 4.6
  },
  {
    "name": "Aquarius Laundry & Dry Cleaning",
    "address": "68 Frodingham Rd, Scunthorpe, DN15 7JN",
    "city": "Scunthorpe",
    "lat": 53.5860,
    "lng": -0.6380,
    "features": ["Self-Service", "Dry Cleaning", "24hr Turnaround", "Ironing"],
    "openingHours": "Mon-Sat: 8:30am - 6:00pm, Sun: 9:00am - 4:00pm",
    "website": "https://www.aquarius-scunthorpe.co.uk/",
    "isPremium": true,
    "reviewCount": 10,
    "rating": 4.4
  },
  {
    "name": "Laundry Lounge (Ashby)",
    "address": "33 Broadway, Ashby, Scunthorpe, DN16 2NJ",
    "city": "Scunthorpe",
    "lat": 53.5680,
    "lng": -0.6200,
    "features": ["Service Wash", "Collection/Delivery", "Flexible Hours", "Appointment Based"],
    "openingHours": "Mon, Tue, Thu: 10:00am - 3:00pm, Fri: 10:00am - 7:00pm, Sat: 9:00am - 4:00pm",
    "website": "https://laundrylounge.setmore.com/",
    "isPremium": false,
    "reviewCount": 5,
    "rating": 4.2
  },
  {
    "name": "Love2Laundry Scunthorpe (Collection/Delivery)",
    "address": "Servicing DN postcodes (Virtual Listing)",
    "city": "Scunthorpe",
    "lat": 53.5800,
    "lng": -0.6500,
    "features": ["Collection/Delivery", "24hr Turnaround", "App Service", "Dry Cleaning"],
    "openingHours": "24/7 Booking",
    "website": "https://www.love2laundry.com/",
    "isPremium": true,
    "reviewCount": 8,
    "rating": 4.6
  },
  {
    "name": "Timpson Dry Cleaning (Tesco)",
    "address": "Tesco, Doncaster Road, Scunthorpe, DN15 8GR",
    "city": "Scunthorpe",
    "lat": 53.5850,
    "lng": -0.6600,
    "features": ["Dry Cleaning Drop-Off", "In-Store Agent", "Key Cutting"],
    "openingHours": "Mon-Sat: 9:00am - 6:00pm, Sun: 10:00am - 4:00pm",
    "website": "https://www.timpson.co.uk/",
    "isPremium": true,
    "reviewCount": 3,
    "rating": 4.3
  },
  {
    "name": "Brigg Launderette & Ironing Services",
    "address": "4 Elwes St, Brigg, DN20 8LB",
    "city": "Scunthorpe",
    "lat": 53.5480,
    "lng": -0.4850,
    "features": ["Self-Service", "Ironing Service", "Excellent Customer Service"],
    "openingHours": "Mon-Fri: 8:30am - 5:00pm, Sat: 8:30am - 4:00pm, Sun: Closed",
    "website": "https://www.yell.com/biz/brigg-launderette-and-ironing-services-brigg-8959952/",
    "isPremium": false,
    "reviewCount": 9,
    "rating": 5.0
  },
  {
    "name": "Wash ME Launderette (SGN Service Station)",
    "address": "SGN Service Station, Scunthorpe, DN16 3BJ",
    "city": "Scunthorpe",
    "lat": 53.5700,
    "lng": -0.6400,
    "features": ["24/7 Outdoor Machine", "Large Capacity", "Card Payment"],
    "openingHours": "24/7",
    "website": "https://stores.revolution-laundry.com/",
    "isPremium": false,
    "reviewCount": 4,
    "rating": 4.0
  },
  {
    "name": "Epworth Launderette",
    "address": "20 High St, Epworth, DN9 1AT (Est)",
    "city": "Scunthorpe",
    "lat": 53.5550,
    "lng": -0.8750,
    "features": ["Launderette", "Service Wash", "Rural Focus"],
    "openingHours": "Mon-Sat: 8:30am - 5:00pm, Sun: Closed",
    "website": "",
    "isPremium": false,
    "reviewCount": 2,
    "rating": 3.5
  },
  {
    "name": "Crowle Launderette",
    "address": "10 Eastoft Rd, Crowle, DN17 4AA (Est)",
    "city": "Scunthorpe",
    "lat": 53.6000,
    "lng": -0.8000,
    "features": ["Self-Service", "Coin-Op"],
    "openingHours": "Mon-Sun: 7:00am - 8:00pm",
    "website": "",
    "isPremium": false,
    "reviewCount": 1,
    "rating": 3.8
  },
  {
    "name": "Winterton Launderette",
    "address": "Queen St, Winterton, DN15 9BA (Est)",
    "city": "Scunthorpe",
    "lat": 53.6800,
    "lng": -0.6250,
    "features": ["Launderette", "Service Wash (Partial)"],
    "openingHours": "Mon-Fri: 9:00am - 4:00pm, Sat: Closed, Sun: Closed",
    "website": "",
    "isPremium": false,
    "reviewCount": 1,
    "rating": 4.1
  },
  {
    "name": "Barton-upon-Humber Launderette",
    "address": "7 High St, Barton-upon-Humber, DN18 5PJ (Est)",
    "city": "Scunthorpe",
    "lat": 53.6900,
    "lng": -0.4500,
    "features": ["Self-Service", "Dry Cleaning Agent"],
    "openingHours": "Mon-Sat: 8:00am - 6:00pm, Sun: Closed",
    "website": "",
    "isPremium": false,
    "reviewCount": 3,
    "rating": 4.4
  }
]
