[
  {
    "name": "Pressed for Time (Dunfermline)",
    "address": "5 Alexandra St, Dunfermline, KY12 0LS",
    "city": "Dunfermline",
    "lat": 56.0710,
    "lng": -3.4350,
    "features": ["Ironing Service", "Service Wash", "Dry Cleaning", "Collection/Delivery"],
    "openingHours": "Mon-Fri: 8:30am - 5:30pm, Sat-Sun: Closed",
    "website": "https://www.yell.com/biz/pressed-for-time-dunfermline-8086083/",
    "isPremium": true,
    "reviewCount": 13,
    "rating": 4.1
  },
  {
    "name": "Aud Sox Laundrette (Allan Crescent)",
    "address": "39 Allan Crescent, Dunfermline, KY11 4HE",
    "city": "Dunfermline",
    "lat": 56.0590,
    "lng": -3.4210,
    "features": ["Coin-Op", "Service Wash", "Duvet Wash", "Ironing"],
    "openingHours": "Mon-Sun: 7:00am - 8:00pm",
    "website": "http://cms4.ems-internet.co.uk/28132/services",
    "isPremium": false,
    "reviewCount": 8,
    "rating": 4.3
  },
  {
    "name": "Love2Laundry Dunfermline (Collection/Delivery)",
    "address": "Servicing KY postcodes (Virtual Listing)",
    "city": "Dunfermline",
    "lat": 56.0680,
    "lng": -3.4300,
    "features": ["Collection/Delivery", "24hr Turnaround", "App Service", "Dry Cleaning"],
    "openingHours": "24/7 Booking",
    "website": "https://www.love2laundry.com/",
    "isPremium": true,
    "reviewCount": 15,
    "rating": 4.6
  },
  {
    "name": "Timpson Dry Cleaning (Asda Dunfermline)",
    "address": "Halbeath Rd, Dunfermline, KY11 4LP",
    "city": "Dunfermline",
    "lat": 56.0760,
    "lng": -3.3980,
    "features": ["Dry Cleaning", "Key Cutting", "Watch Repair", "Shoe Repair"],
    "openingHours": "Mon-Sat: 9:00am - 6:00pm, Sun: 10:00am - 4:00pm",
    "website": "https://www.timpson.co.uk/",
    "isPremium": false,
    "reviewCount": 10,
    "rating": 4.7
  },
  {
    "name": "City Laundry & Ironing Services (Dalgety Bay)",
    "address": "1 Main St, Dalgety Bay, KY11 9AB (Est)",
    "city": "Dunfermline",
    "lat": 56.0350,
    "lng": -3.3300,
    "features": ["Commercial Laundry", "Hotel Linen Hire", "Ironing Service"],
    "openingHours": "Mon-Fri: 9:00am - 5:00pm, Sat-Sun: Closed",
    "website": "https://www.yell.com/biz/city-laundry-ironing-services-edinburgh-10476483/",
    "isPremium": false,
    "reviewCount": 3,
    "rating": 3.0
  },
  {
    "name": "Rosyth Launderette",
    "address": "15 Queensferry Rd, Rosyth, KY11 2PU (Est)",
    "city": "Dunfermline",
    "lat": 56.0230,
    "lng": -3.4150,
    "features": ["Self-Service", "Service Wash", "Local Focus"],
    "openingHours": "Mon-Sun: 7:00am - 9:00pm",
    "website": "",
    "isPremium": false,
    "reviewCount": 2,
    "rating": 4.0
  },
  {
    "name": "Fife Laundry Services Ltd (Cowdenbeath)",
    "address": "117 High St, Cowdenbeath, KY4 9QA",
    "city": "Dunfermline",
    "lat": 56.1030,
    "lng": -3.3550,
    "features": ["Dry Cleaning", "Alterations", "Wedding Dresses", "Family Run"],
    "openingHours": "Mon-Fri: 9:00am - 5:00pm, Sat: 9:00am - 12:00pm, Sun: Closed",
    "website": "https://www.yell.com/biz/fife-launderette-cowdenbeath-10476483/",
    "isPremium": false,
    "reviewCount": 7,
    "rating": 5.0
  },
  {
    "name": "Loch Leven Laundry (Kinross)",
    "address": "77 High St, Kinross, KY13 8AA",
    "city": "Dunfermline",
    "lat": 56.2080,
    "lng": -3.4210,
    "features": ["Launderette", "Dry Cleaning Agent", "Small Town"],
    "openingHours": "Mon-Fri: 9:30am - 5:00pm, Sat-Sun: Closed",
    "website": "https://www.yell.com/biz/loch-leven-laundry-kinross-10476483/",
    "isPremium": false,
    "reviewCount": 4,
    "rating": 4.3
  },
  {
    "name": "Pressed for Time (Ridge Way)",
    "address": "Unit 4 Block 19 Ridge Way, Dunfermline, KY11 9JN",
    "city": "Dunfermline",
    "lat": 56.0820,
    "lng": -3.3900,
    "features": ["Ironing Service", "Laundry", "Dry Cleaning", "Commercial"],
    "openingHours": "Mon-Fri: 9:00am - 5:00pm, Sat-Sun: Closed",
    "website": "https://pressedfortimefife.co.uk/",
    "isPremium": false,
    "reviewCount": 1,
    "rating": 5.0
  },
  {
    "name": "Inverkeithing Launderette",
    "address": "4 Hill St, Inverkeithing, KY11 1NJ (Est)",
    "city": "Dunfermline",
    "lat": 56.0200,
    "lng": -3.3900,
    "features": ["Self-Service", "Town Centre"],
    "openingHours": "Mon-Sun: 7:00am - 9:00pm",
    "website": "",
    "isPremium": false,
    "reviewCount": 2,
    "rating": 3.7
  },
  {
    "name": "Laundry on Line Ltd (Guthrie St)",
    "address": "33-37 Guthrie St, Dundee, DD1 5BR",
    "city": "Dundee",
    "lat": 56.4630,
    "lng": -2.9770,
    "features": ["Dry Cleaning", "Service Wash", "Ironing Service", "Alterations"],
    "openingHours": "Mon-Fri: 8:00am - 6:00pm, Sat: 8:00am - 1:00pm, Sun: Closed",
    "website": "https://laundryonlinetayside.co.uk/",
    "isPremium": true,
    "reviewCount": 10,
    "rating": 4.8
  },
  {
    "name": "The Ferry Launderette & Dry Cleaners",
    "address": "44 Gray Street, Broughty Ferry, DD5 2BJ",
    "city": "Dundee",
    "lat": 56.4670,
    "lng": -2.8710,
    "features": ["Service Wash", "Same Day Service", "Dry Cleaning", "Family Run"],
    "openingHours": "Mon-Fri: 9:00am - 7:00pm, Sat: 9:00am - 7:00pm, Sun: Closed",
    "website": "https://www.theferrylaundrette.co.uk/",
    "isPremium": true,
    "reviewCount": 12,
    "rating": 4.9
  },
  {
    "name": "Love2Laundry Dundee (Collection/Delivery)",
    "address": "Servicing DD postcodes (Virtual Listing)",
    "city": "Dundee",
    "lat": 56.4550,
    "lng": -2.9700,
    "features": ["Collection/Delivery", "24hr Turnaround", "App Service", "Dry Cleaning"],
    "openingHours": "24/7 Booking",
    "website": "https://www.love2laundry.com/",
    "isPremium": true,
    "reviewCount": 18,
    "rating": 4.6
  },
  {
    "name": "Blackness Launderette",
    "address": "188 Blackness Rd, Dundee, DD1 5PQ",
    "city": "Dundee",
    "lat": 56.4640,
    "lng": -2.9850,
    "features": ["Launderette", "Ironing Service", "Stain Removal", "Self-Service"],
    "openingHours": "Mon-Sat: 8:00am - 6:00pm, Sun: Closed",
    "website": "https://www.yell.com/biz/blackness-launderette-dundee-10255556/",
    "isPremium": false,
    "reviewCount": 5,
    "rating": 5.0
  },
  {
    "name": "Lochee Launderette",
    "address": "155 High St, Dundee, DD2 3DB",
    "city": "Dundee",
    "lat": 56.4760,
    "lng": -3.0180,
    "features": ["Commercial/Domestic", "Service/Self Service", "Duvet Cleaning"],
    "openingHours": "Mon-Sat: 8:00am - 6:00pm, Sun: Closed",
    "website": "https://www.yell.com/biz/lochee-launderette-dundee-10255557/",
    "isPremium": false,
    "reviewCount": 3,
    "rating": 5.0
  },
  {
    "name": "The Ironing Express (Broughty Ferry)",
    "address": "Unit E Scottway, Pearce Ave, West Pitkerro Ind Est, DD5 3RX",
    "city": "Dundee",
    "lat": 56.4710,
    "lng": -2.9200,
    "features": ["Ironing Service", "24hr Turnaround", "Collection/Delivery"],
    "openingHours": "Mon-Fri: 9:00am - 5:00pm, Sat-Sun: Closed",
    "website": "https://www.yell.com/biz/ironing-express-dundee-10255558/",
    "isPremium": false,
    "reviewCount": 1,
    "rating": 5.0
  },
  {
    "name": "Care Clean (Craigie Avenue)",
    "address": "20 Craigie Avenue, Dundee, DD4 7NN",
    "city": "Dundee",
    "lat": 56.4670,
    "lng": -2.9450,
    "features": ["Dry Cleaning", "Ironing/Alterations", "Launderette Service"],
    "openingHours": "Mon-Fri: 9:00am - 5:00pm, Sat-Sun: Closed",
    "website": "https://www.yell.com/biz/care-clean-professional-dry-cleaning-dundee-901458021/",
    "isPremium": false,
    "reviewCount": 4,
    "rating": 4.0
  },
  {
    "name": "Monifieth Launderette",
    "address": "21 High St, Monifieth, DD5 4AA (Est)",
    "city": "Dundee",
    "lat": 56.4950,
    "lng": -2.8350,
    "features": ["Town Centre", "Self-Service", "Duvet Cleaning"],
    "openingHours": "Mon-Sun: 8:00am - 8:00pm",
    "website": "",
    "isPremium": false,
    "reviewCount": 2,
    "rating": 4.1
  },
  {
    "name": "Carnoustie Launderette",
    "address": "2 High St, Carnoustie, DD7 6AZ (Est)",
    "city": "Dundee",
    "lat": 56.5050,
    "lng": -2.7150,
    "features": ["Service Wash", "Coastal Focus"],
    "openingHours": "Mon-Sat: 9:00am - 5:00pm, Sun: Closed",
    "website": "",
    "isPremium": false,
    "reviewCount": 1,
    "rating": 4.3
  },
  {
    "name": "Arbroath Launderette",
    "address": "100 High St, Arbroath, DD11 1EH (Est)",
    "city": "Dundee",
    "lat": 56.5650,
    "lng": -2.5850,
    "features": ["Town Centre", "Coin-Op", "Dry Cleaning Agent"],
    "openingHours": "Mon-Sun: 7:00am - 9:00pm",
    "website": "",
    "isPremium": false,
    "reviewCount": 5,
    "rating": 3.8
  },
  {
    "name": "Abbot Street Laundry",
    "address": "5-7 Abbot Street, Perth, PH2 0EB",
    "city": "Perth",
    "lat": 56.3880,
    "lng": -3.4280,
    "features": ["Laundry & Ironing", "Repairs/Alterations", "Commercial/Domestic", "Free Collection/Delivery"],
    "openingHours": "Mon-Fri: 9:00am - 5:00pm, Sat-Sun: Closed",
    "website": "https://www.abbotstreetlaundry.co.uk/",
    "isPremium": true,
    "reviewCount": 15,
    "rating": 4.8
  },
  {
    "name": "Fair City Laundry",
    "address": "44 North Methven St, Perth, PH1 5PP",
    "city": "Perth",
    "lat": 56.3980,
    "lng": -3.4300,
    "features": ["Launderette", "Self-Service", "Service Wash", "Central Location"],
    "openingHours": "Mon-Fri: 9:00am - 5:30pm, Sat: 9:00am - 5:00pm, Sun: Closed",
    "website": "https://www.yell.com/biz/fair-city-laundry-perth-901458021/",
    "isPremium": false,
    "reviewCount": 6,
    "rating": 4.2
  },
  {
    "name": "Love2Laundry Perth (Collection/Delivery)",
    "address": "Servicing PH postcodes (Virtual Listing)",
    "city": "Perth",
    "lat": 56.3950,
    "lng": -3.4300,
    "features": ["Collection/Delivery", "24hr Turnaround", "App Service", "Dry Cleaning"],
    "openingHours": "24/7 Booking",
    "website": "https://www.love2laundry.com/",
    "isPremium": true,
    "reviewCount": 10,
    "rating": 4.6
  },
  {
    "name": "Care Clean (New Row)",
    "address": "43 New Row, Perth, PH1 5QA",
    "city": "Perth",
    "lat": 56.3970,
    "lng": -3.4320,
    "features": ["Launderette", "Dry Cleaning", "Service Wash"],
    "openingHours": "Mon-Fri: 9:00am - 5:00pm, Sat: 9:00am - 1:00pm, Sun: Closed",
    "website": "https://www.yell.com/biz/care-clean-perth-901458021/",
    "isPremium": false,
    "reviewCount": 4,
    "rating": 4.0
  },
  {
    "name": "Oinkers Jetwash & Laundry (Revolution)",
    "address": "Glenearn Rd, Perth, PH2 0NJ (Outdoor)",
    "city": "Perth",
    "lat": 56.3800,
    "lng": -3.4450,
    "features": ["24/7 Outdoor Machine", "Card Payment", "Jet Wash/Valeting"],
    "openingHours": "24/7",
    "website": "https://stores.revolution-laundry.com/",
    "isPremium": false,
    "reviewCount": 7,
    "rating": 4.3
  },
  {
    "name": "Pitlochry Launderette",
    "address": "15 Atholl Rd, Pitlochry, PH16 5BX (Est)",
    "city": "Perth",
    "lat": 56.7020,
    "lng": -3.8500,
    "features": ["Tourist Focus", "Service Wash", "Duvet Cleaning"],
    "openingHours": "Mon-Sat: 9:00am - 5:00pm, Sun: Closed",
    "website": "",
    "isPremium": false,
    "reviewCount": 3,
    "rating": 4.5
  },
  {
    "name": "Dunkeld Launderette",
    "address": "The Square, Dunkeld, PH8 0AP (Est)",
    "city": "Perth",
    "lat": 56.5660,
    "lng": -3.5850,
    "features": ["Village Service", "Self-Service", "Coin-Op"],
    "openingHours": "Mon-Sun: 7:00am - 9:00pm",
    "website": "",
    "isPremium": false,
    "reviewCount": 1,
    "rating": 4.0
  },
  {
    "name": "Auchterarder Laundry",
    "address": "40 High St, Auchterarder, PH3 1DA (Est)",
    "city": "Perth",
    "lat": 56.2860,
    "lng": -3.7150,
    "features": ["Town Centre", "Dry Cleaning Agent"],
    "openingHours": "Mon-Fri: 9:00am - 5:00pm, Sat: 9:00am - 1:00pm, Sun: Closed",
    "website": "",
    "isPremium": false,
    "reviewCount": 2,
    "rating": 4.1
  },
  {
    "name": "Crieff Launderette",
    "address": "12 East High St, Crieff, PH7 3AF (Est)",
    "city": "Perth",
    "lat": 56.3760,
    "lng": -3.8400,
    "features": ["Service Wash", "Town Centre"],
    "openingHours": "Mon-Sat: 8:30am - 6:00pm, Sun: 9:00am - 4:00pm",
    "website": "",
    "isPremium": false,
    "reviewCount": 4,
    "rating": 4.2
  },
  {
    "name": "Kinross Revolution Laundry",
    "address": "77 High St, Kinross, KY13 8AA (Outdoor Est)",
    "city": "Perth",
    "lat": 56.2080,
    "lng": -3.4210,
    "features": ["24/7 Outdoor Machine", "Card Payment"],
    "openingHours": "24/7",
    "website": "https://stores.revolution-laundry.com/",
    "isPremium": false,
    "reviewCount": 2,
    "rating": 4.0
  }
]
